name,node_code,node_type,owner,province,latitude,longitude,planning_region,sources,notes
"Deer Hill 1012S",AB_1012S_DSS,DSS,"Altalink Management Ltd.",AB,53.806344,-116.619471,Alberta,"name:19, node_code:None, node_type:None, owner:None, latitude:None, longitude:None, references:None, ",NULL
"Shamrock 1018S",AB_1018S_DSS,DSS,"Altalink Management Ltd.",AB,49.650996,-111.291014,Alberta,"name:19, node_code:None, node_type:None, owner:None, latitude:None, longitude:None, references:None, ",NULL
"Cheviot 101S",AB_101S_DSS,DSS,"Altalink Management Ltd.",AB,53.086399,-117.437862,Alberta,"name:19, node_code:None, node_type:None, owner:None, latitude:None, longitude:None, references:None, ",NULL
"Vista 1029S",AB_1029S_DSS,DSS,"Altalink Management Ltd.",AB,53.364501,-117.341570,Alberta,"name:19, node_code:None, node_type:None, owner:None, latitude:None, longitude:None, references:None, ",NULL
"Langdon 102S",AB_102S_DSS,DSS,"Altalink Management Ltd.",AB,50.959340,-113.719784,Alberta,"name:19, node_code:None, node_type:None, owner:None, latitude:None, longitude:None, references:None, ",NULL
"Margie 1034S",AB_1034S_ISS,ISS,"Altalink Management Ltd.",AB,55.460078,-111.224915,Alberta,"name:19, node_code:None, node_type:None, owner:None, latitude:None, longitude:None, references:None, ",NULL
"Margie 1034S JCT",AB_1034S_JCT,JCT,"Altalink Management Ltd.",AB,55.350424,-111.234209,Alberta,"name:19, node_code:None, node_type:None, owner:None, latitude:None, longitude:None, references:None, ",NULL
"Goose Lake 103S",AB_103S_DSS,DSS,"Altalink Management Ltd.",AB,49.515549,-113.923193,Alberta,"name:19, node_code:None, node_type:None, owner:None, latitude:None, longitude:None, references:None, ",NULL
"Watson Creek 104S",AB_104S_DSS,DSS,"Altalink Management Ltd.",AB,53.276909,-117.743930,Alberta,"name:19, node_code:None, node_type:None, owner:None, latitude:None, longitude:None, references:None, ",NULL
"Bilby 105S",AB_105S_DSS,DSS,"Altalink Management Ltd.",AB,53.556955,-114.007614,Alberta,"name:19, node_code:None, node_type:None, owner:None, latitude:None, longitude:None, references:None, ",NULL
"Bilby 105S JCT",AB_105S_JCT,JCT,"Altalink Management Ltd.",AB,53.556046,-114.001764,Alberta,"name:19, node_code:None, node_type:None, owner:None, latitude:None, longitude:None, references:None, ",NULL
"Windrise 1063S",AB_1063S_GSS,GSS,"Altalink Management Ltd.",AB,49.492220,-113.444912,Alberta,"name:19, node_code:None, node_type:None, owner:None, latitude:None, longitude:None, references:None, ",NULL
"Paddle River 106S",AB_106S_DSS,DSS,"Altalink Management Ltd.",AB,53.600612,-115.448577,Alberta,"name:19, node_code:None, node_type:None, owner:None, latitude:None, longitude:None, references:None, ",NULL
"Paddle River 106S JCT",AB_106S_JCT,JCT,"Altalink Management Ltd.",AB,53.599498,-115.448674,Alberta,"name:19, node_code:None, node_type:None, owner:None, latitude:None, longitude:None, references:None, ",NULL
"Westfield 107S",AB_107S_DSS,DSS,"Altalink Management Ltd.",AB,49.670251,-111.493872,Alberta,"name:19, node_code:None, node_type:None, owner:None, latitude:None, longitude:None, references:None, ",NULL
"Amelia 108S",AB_108S_DSS,DSS,"Altalink Management Ltd.",AB,53.824834,-113.048779,Alberta,"name:19, node_code:None, node_type:None, owner:None, latitude:None, longitude:None, references:None, ",NULL
"Coalbanks 111S",AB_111S_DSS,DSS,"Altalink Management Ltd.",AB,49.686887,-112.853651,Alberta,"name:19, node_code:None, node_type:None, owner:None, latitude:None, longitude:None, references:None, ",NULL
"Windy Point 112S",AB_112S_DSS,DSS,"Altalink Management Ltd.",AB,49.583451,-113.843028,Alberta,"name:19, node_code:None, node_type:None, owner:None, latitude:None, longitude:None, references:None, ",NULL
"Windy Point 112S JCT",AB_112S_JCT,JCT,"Altalink Management Ltd.",AB,49.582515,-113.842892,Alberta,"name:19, node_code:None, node_type:None, owner:None, latitude:None, longitude:None, references:None, ",NULL
"Ghost Pine 114S",AB_114S_DSS,DSS,"ATCO Electric Ltd.",AB,51.872348,-113.318052,Alberta,"name:19, node_code:None, node_type:None, owner:None, latitude:None, longitude:None, references:None, ",NULL
"Ghost Pine 114S JCT",AB_114S_JCT,JCT,"ATCO Electric Ltd.",AB,51.911318,-113.241355,Alberta,"name:19, node_code:None, node_type:None, owner:None, latitude:None, longitude:None, references:None, ",NULL
"Mt. Allan 115S",AB_115S_DSS,DSS,"Altalink Management Ltd.",AB,50.951755,-115.140335,Alberta,"name:19, node_code:None, node_type:None, owner:None, latitude:None, longitude:None, references:None, ",NULL
"Canmore 118S",AB_118S_DSS,DSS,"Altalink Management Ltd.",AB,51.079702,-115.319939,Alberta,"name:19, node_code:None, node_type:None, owner:None, latitude:None, longitude:None, references:None, ",NULL
"Foster Creek 1200S",AB_1200S_GSS,GSS,"ATCO Electric Ltd.",AB,55.067701,-110.536956,Alberta,"name:19, node_code:None, node_type:None, owner:None, latitude:None, longitude:None, references:None, ",NULL
"Picture Butte 120S",AB_120S_DSS,DSS,"Altalink Management Ltd.",AB,49.827779,-112.735101,Alberta,"name:19, node_code:None, node_type:None, owner:None, latitude:None, longitude:None, references:None, ",NULL
"Brooks 121S",AB_121S_GSS,GSS,"Altalink Management Ltd.",AB,50.557998,-111.895221,Alberta,"name:19, node_code:None, node_type:None, owner:None, latitude:None, longitude:None, references:None, ",NULL
"Alberta Newsprint 122S",AB_122S_GSS,GSS,"Altalink Management Ltd.",AB,54.127889,-115.665862,Alberta,"name:19, node_code:None, node_type:None, owner:None, latitude:None, longitude:None, references:None, ",NULL
"Banff 123S",AB_123S_DSS,DSS,"Altalink Management Ltd.",AB,51.188590,-115.563615,Alberta,"name:19, node_code:None, node_type:None, owner:None, latitude:None, longitude:None, references:None, ",NULL
"Bruderheim 127S",AB_127S_DSS,DSS,"Altalink Management Ltd.",AB,53.802790,-112.871345,Alberta,"name:19, node_code:None, node_type:None, owner:None, latitude:None, longitude:None, references:None, ",NULL
"Heartland 12S",AB_12S_DSS,DSS,"Altalink Management Ltd.",AB,55.044133,-111.648976,Alberta,"name:19, node_code:None, node_type:None, owner:None, latitude:None, longitude:None, references:None, ",NULL
"Moon Lake 131S",AB_131S_DSS,DSS,"Altalink Management Ltd.",AB,53.424594,-114.985357,Alberta,"name:19, node_code:None, node_type:None, owner:None, latitude:None, longitude:None, references:None, ",NULL
"Ware Junction 132S",AB_132S_DSS,DSS,"Altalink Management Ltd.",AB,50.872395,-111.919610,Alberta,"name:19, node_code:None, node_type:None, owner:None, latitude:None, longitude:None, references:None, ",NULL
"Stelco Edmonton East 133S",AB_133S_DSS,DSS,"Altalink Management Ltd.",AB,53.529609,-113.384168,Alberta,"name:19, node_code:None, node_type:None, owner:None, latitude:None, longitude:None, references:None, ",NULL
"Taber Wind Farm 134S",AB_134S_GSS,GSS,"Altalink Management Ltd.",AB,49.697439,-111.947181,Alberta,"name:19, node_code:None, node_type:None, owner:None, latitude:None, longitude:None, references:None, ",NULL
"Taber Wind Farm 134S JCT",AB_134S_JCT,JCT,"Altalink Management Ltd.",AB,49.698722,-111.968840,Alberta,"name:19, node_code:None, node_type:None, owner:None, latitude:None, longitude:None, references:None, ",NULL
"Conrad 135S",AB_135S_DSS,DSS,"Altalink Management Ltd.",AB,49.524717,-111.967829,Alberta,"name:19, node_code:None, node_type:None, owner:None, latitude:None, longitude:None, references:None, ",NULL
"Sedgewick 137S",AB_137S_DSS,DSS,"Altalink Management Ltd.",AB,52.771079,-111.711994,Alberta,"name:19, node_code:None, node_type:None, owner:None, latitude:None, longitude:None, references:None, ",NULL
"Sedgewick 137S JCT",AB_137S_JCT,JCT,"Altalink Management Ltd.",AB,52.770766,-111.711921,Alberta,"name:19, node_code:None, node_type:None, owner:None, latitude:None, longitude:None, references:None, ",NULL
"Windy Flats 138S",AB_138S_DSS,DSS,"Altalink Management Ltd.",AB,49.641708,-113.491982,Alberta,"name:19, node_code:None, node_type:None, owner:None, latitude:None, longitude:None, references:None, ",NULL
"Hillridge 139S",AB_139S_DSS,DSS,"Altalink Management Ltd.",AB,49.693130,-112.329035,Alberta,"name:19, node_code:None, node_type:None, owner:None, latitude:None, longitude:None, references:None, ",NULL
"Hillridge 139S JCT",AB_139S_JCT,JCT,"Altalink Management Ltd.",AB,49.814985,-112.420738,Alberta,"name:19, node_code:None, node_type:None, owner:None, latitude:None, longitude:None, references:None, ",NULL
"Deerland 13S",AB_13S_DSS,DSS,"Altalink Management Ltd.",AB,53.857352,-112.895054,Alberta,"name:19, node_code:None, node_type:None, owner:None, latitude:None, longitude:None, references:None, ",NULL
"Thompson 140S",AB_140S_DSS,DSS,"Altalink Management Ltd.",AB,54.774763,-111.834716,Alberta,"name:19, node_code:None, node_type:None, owner:None, latitude:None, longitude:None, references:None, ",NULL
"Thompson 140S JCT",AB_140S_JCT,JCT,"Altalink Management Ltd.",AB,54.762313,-111.818683,Alberta,"name:19, node_code:None, node_type:None, owner:None, latitude:None, longitude:None, references:None, ",NULL
"Magcan 142S",AB_142S_DSS,DSS,"Altalink Management Ltd.",AB,50.654656,-113.871584,Alberta,"name:19, node_code:None, node_type:None, owner:None, latitude:None, longitude:None, references:None, ",NULL
"Magcan 142S JCT",AB_142S_JCT,JCT,"Altalink Management Ltd.",AB,50.659533,-113.905501,Alberta,"name:19, node_code:None, node_type:None, owner:None, latitude:None, longitude:None, references:None, ",NULL
"Macdonald 146S",AB_146S_DSS,DSS,"Altalink Management Ltd.",AB,49.713208,-112.780012,Alberta,"name:19, node_code:None, node_type:None, owner:None, latitude:None, longitude:None, references:None, ",NULL
"Nisku 149S",AB_149S_DSS,DSS,"Altalink Management Ltd.",AB,53.308277,-113.512140,Alberta,"name:19, node_code:None, node_type:None, owner:None, latitude:None, longitude:None, references:None, ",NULL
"Devon 14S",AB_14S_DSS,DSS,"Altalink Management Ltd.",AB,53.354957,-113.718841,Alberta,"name:19, node_code:None, node_type:None, owner:None, latitude:None, longitude:None, references:None, ",NULL
"Clyde 150S",AB_150S_DSS,DSS,"Altalink Management Ltd.",AB,54.144286,-113.624893,Alberta,"name:19, node_code:None, node_type:None, owner:None, latitude:None, longitude:None, references:None, ",NULL
"Strathmore 151S",AB_151S_GSS,GSS,"Altalink Management Ltd.",AB,51.032690,-113.376704,Alberta,"name:19, node_code:None, node_type:None, owner:None, latitude:None, longitude:None, references:None, ",NULL
"Black Spruce 154S",AB_154S_DSS,DSS,"Altalink Management Ltd.",AB,55.569450,-110.855177,Alberta,"name:19, node_code:None, node_type:None, owner:None, latitude:None, longitude:None, references:None, ",NULL
"Blackmud 155S",AB_155S_DSS,DSS,"Altalink Management Ltd.",AB,53.354935,-113.511138,Alberta,"name:19, node_code:None, node_type:None, owner:None, latitude:None, longitude:None, references:None, ",NULL
"Lac La Biche 157S",AB_157S_DSS,DSS,"Altalink Management Ltd.",AB,54.733703,-111.979334,Alberta,"name:19, node_code:None, node_type:None, owner:None, latitude:None, longitude:None, references:None, ",NULL
"Vauxhall 158S",AB_158S_DSS,DSS,"Altalink Management Ltd.",AB,50.106923,-112.116642,Alberta,"name:19, node_code:None, node_type:None, owner:None, latitude:None, longitude:None, references:None, ",NULL
"Colinton 159S",AB_159S_DSS,DSS,"Altalink Management Ltd.",AB,54.618233,-113.309407,Alberta,"name:19, node_code:None, node_type:None, owner:None, latitude:None, longitude:None, references:None, ",NULL
"Fort Macleod 15S",AB_15S_GSS,GSS,"Altalink Management Ltd.",AB,49.728171,-113.391368,Alberta,"name:19, node_code:None, node_type:None, owner:None, latitude:None, longitude:None, references:None, ",NULL
"Beddington 162S",AB_162S_DSS,DSS,"ENMAX Power Corporation",AB,51.178852,-113.938255,Alberta,"name:19, node_code:None, node_type:None, owner:None, latitude:None, longitude:None, references:None, ",NULL
"AMOCO Empress 163S",AB_163S_ISS,ISS,"Altalink Management Ltd.",AB,50.678091,-110.026756,Alberta,"name:19, node_code:None, node_type:None, owner:None, latitude:None, longitude:None, references:None, ",NULL
"Empress Liquids 164S",AB_164S_ISS,ISS,"Altalink Management Ltd.",AB,50.678761,-110.052951,Alberta,"name:19, node_code:None, node_type:None, owner:None, latitude:None, longitude:None, references:None, ",NULL
"Empress Liquids 164S JCT",AB_164S_JCT,JCT,"Altalink Management Ltd.",AB,50.688516,-110.051040,Alberta,"name:19, node_code:None, node_type:None, owner:None, latitude:None, longitude:None, references:None, ",NULL
"T.M.P.L. Gainford 165S",AB_165S_ISS,ISS,"Altalink Management Ltd.",AB,53.581773,-114.742324,Alberta,"name:19, node_code:None, node_type:None, owner:None, latitude:None, longitude:None, references:None, ",NULL
"T.M.P.L. Gainford 165S JCT",AB_165S_JCT,JCT,"Altalink Management Ltd.",AB,53.580189,-114.742107,Alberta,"name:19, node_code:None, node_type:None, owner:None, latitude:None, longitude:None, references:None, ",NULL
"Dow Chemical Fort Sask. 166S",AB_166S_ISS,ISS,"Altalink Management Ltd.",AB,53.731395,-113.173806,Alberta,"name:19, node_code:None, node_type:None, owner:None, latitude:None, longitude:None, references:None, ",NULL
"Ipiatik 167S",AB_167S_DSS,DSS,"Altalink Management Ltd.",AB,55.357078,-111.063301,Alberta,"name:19, node_code:None, node_type:None, owner:None, latitude:None, longitude:None, references:None, ",NULL
"Pike 170S",AB_170S_DSS,DSS,"Altalink Management Ltd.",AB,55.407268,-110.742939,Alberta,"name:19, node_code:None, node_type:None, owner:None, latitude:None, longitude:None, references:None, ",NULL
"Redwater 171S",AB_171S_DSS,DSS,"Altalink Management Ltd.",AB,53.935008,-113.075899,Alberta,"name:19, node_code:None, node_type:None, owner:None, latitude:None, longitude:None, references:None, ",NULL
"Sherritt Gordon 172S",AB_172S_GSS,GSS,"Altalink Management Ltd.",AB,53.722418,-113.191650,Alberta,"name:19, node_code:None, node_type:None, owner:None, latitude:None, longitude:None, references:None, ",NULL
"West Cascade 177S",AB_177S_DSS,DSS,"Altalink Management Ltd.",AB,51.200200,-115.502053,Alberta,"name:19, node_code:None, node_type:None, owner:None, latitude:None, longitude:None, references:None, ",NULL
"Cynthia 178S",AB_178S_DSS,DSS,"Altalink Management Ltd.",AB,53.288634,-115.631569,Alberta,"name:19, node_code:None, node_type:None, owner:None, latitude:None, longitude:None, references:None, ",NULL
"Gleichen 179S",AB_179S_DSS,DSS,"Altalink Management Ltd.",AB,50.848580,-113.051025,Alberta,"name:19, node_code:None, node_type:None, owner:None, latitude:None, longitude:None, references:None, ",NULL
"Benalto 17S",AB_17S_DSS,DSS,"Altalink Management Ltd.",AB,52.259814,-114.290165,Alberta,"name:19, node_code:None, node_type:None, owner:None, latitude:None, longitude:None, references:None, ",NULL
"Chinook 181S",AB_181S_DSS,DSS,"Altalink Management Ltd.",AB,49.705184,-112.907882,Alberta,"name:19, node_code:None, node_type:None, owner:None, latitude:None, longitude:None, references:None, ",NULL
"Underwood 183S",AB_183S_DSS,DSS,"Altalink Management Ltd.",AB,55.383555,-110.746419,Alberta,"name:19, node_code:None, node_type:None, owner:None, latitude:None, longitude:None, references:None, ",NULL
"Petro Canada Edmonton 184S",AB_184S_DSS,DSS,"Altalink Management Ltd.",AB,53.554131,-113.346081,Alberta,"name:19, node_code:None, node_type:None, owner:None, latitude:None, longitude:None, references:None, ",NULL
"Bretville 185S",AB_185S_DSS,DSS,"Altalink Management Ltd.",AB,53.571246,-113.349658,Alberta,"name:19, node_code:None, node_type:None, owner:None, latitude:None, longitude:None, references:None, ",NULL
"Dry Creek 186S",AB_186S_DSS,DSS,"Altalink Management Ltd.",AB,51.245067,-114.014209,Alberta,"name:19, node_code:None, node_type:None, owner:None, latitude:None, longitude:None, references:None, ",NULL
"N.W. Cardiff 191S",AB_191S_DSS,DSS,"Altalink Management Ltd.",AB,53.804699,-113.593782,Alberta,"name:19, node_code:None, node_type:None, owner:None, latitude:None, longitude:None, references:None, ",NULL
"South Red Deer 194S",AB_194S_DSS,DSS,"Altalink Management Ltd.",AB,52.270330,-113.822093,Alberta,"name:19, node_code:None, node_type:None, owner:None, latitude:None, longitude:None, references:None, ",NULL
"Bardo 197S",AB_197S_DSS,DSS,"Altalink Management Ltd.",AB,53.279987,-112.755836,Alberta,"name:19, node_code:None, node_type:None, owner:None, latitude:None, longitude:None, references:None, ",NULL
"Blackfalds 198S",AB_198S_DSS,DSS,"Altalink Management Ltd.",AB,52.405629,-113.760537,Alberta,"name:19, node_code:None, node_type:None, owner:None, latitude:None, longitude:None, references:None, ",NULL
"East Airdrie 199S",AB_199S_DSS,DSS,"Altalink Management Ltd.",AB,51.300901,-113.988631,Alberta,"name:19, node_code:None, node_type:None, owner:None, latitude:None, longitude:None, references:None, ",NULL
"Wabamun 19S",AB_19S_DSS,DSS,"Altalink Management Ltd.",AB,53.559907,-114.493410,Alberta,"name:19, node_code:None, node_type:None, owner:None, latitude:None, longitude:None, references:None, ",NULL
"Wap 1S",AB_1S_DSS,DSS,"Dapp Power Corporation",AB,54.414969,-114.176638,Alberta,"name:19, node_code:None, node_type:None, owner:None, latitude:None, longitude:None, references:None, ",NULL
"Wap 1S JCT",AB_1S_JCT,JCT,"Dapp Power Corporation",AB,54.442332,-113.962716,Alberta,"name:19, node_code:None, node_type:None, owner:None, latitude:None, longitude:None, references:None, ",NULL
"Secord 2005S",AB_2005S_DSS,DSS,"ATCO Electric Ltd.",AB,57.395065,-111.624479,Alberta,"name:19, node_code:None, node_type:None, owner:None, latitude:None, longitude:None, references:None, ",NULL
"Willow Lake 2009S",AB_2009S_DSS,DSS,"ATCO Electric Ltd.",AB,56.478712,-111.430076,Alberta,"name:19, node_code:None, node_type:None, owner:None, latitude:None, longitude:None, references:None, ",NULL
"Dawes 2011S",AB_2011S_DSS,DSS,"ATCO Electric Ltd.",AB,56.297279,-111.715329,Alberta,"name:19, node_code:None, node_type:None, owner:None, latitude:None, longitude:None, references:None, ",NULL
"Halfway 2014S",AB_2014S_DSS,DSS,"ATCO Electric Ltd.",AB,56.626738,-111.343627,Alberta,"name:19, node_code:None, node_type:None, owner:None, latitude:None, longitude:None, references:None, ",NULL
"Halfway 2014S JCT",AB_2014S_JCT,JCT,"ATCO Electric Ltd.",AB,56.626725,-111.342436,Alberta,"name:19, node_code:None, node_type:None, owner:None, latitude:None, longitude:None, references:None, ",NULL
"Yeo 2015S",AB_2015S_DSS,DSS,"ATCO Electric Ltd.",AB,56.758843,-112.151709,Alberta,"name:19, node_code:None, node_type:None, owner:None, latitude:None, longitude:None, references:None, ",NULL
"Muir 2018S",AB_2018S_DSS,DSS,"ATCO Electric Ltd.",AB,54.387421,-116.971688,Alberta,"name:19, node_code:None, node_type:None, owner:None, latitude:None, longitude:None, references:None, ",NULL
"Muir 2018S JCT",AB_2018S_JCT,JCT,"ATCO Electric Ltd.",AB,54.411642,-116.864745,Alberta,"name:19, node_code:None, node_type:None, owner:None, latitude:None, longitude:None, references:None, ",NULL
"Heathfield 2029S",AB_2029S_TSS,TSS,"ATCO Electric Ltd.",AB,53.851711,-113.206855,Alberta,"name:19, node_code:None, node_type:None, owner:None, latitude:None, longitude:None, references:None, ",NULL
"Sweetheart Lake 2032S",AB_2032S_DSS,DSS,"ATCO Electric Ltd.",AB,56.280317,-111.626610,Alberta,"name:19, node_code:None, node_type:None, owner:None, latitude:None, longitude:None, references:None, ",NULL
"Mowat 2033S",AB_2033S_DSS,DSS,"ATCO Electric Ltd.",AB,55.752967,-118.984405,Alberta,"name:19, node_code:None, node_type:None, owner:None, latitude:None, longitude:None, references:None, ",NULL
"Mowat 2033S JCT",AB_2033S_JCT,JCT,"ATCO Electric Ltd.",AB,55.752190,-118.984841,Alberta,"name:19, node_code:None, node_type:None, owner:None, latitude:None, longitude:None, references:None, ",NULL
"Hurd 2037S",AB_2037S_DSS,DSS,"ATCO Electric Ltd.",AB,51.489155,-111.167095,Alberta,"name:19, node_code:None, node_type:None, owner:None, latitude:None, longitude:None, references:None, ",NULL
"Kettle River 2049S",AB_2049S_DSS,DSS,"ATCO Electric Ltd.",AB,55.918499,-110.883040,Alberta,"name:19, node_code:None, node_type:None, owner:None, latitude:None, longitude:None, references:None, ",NULL
"Sandy Point 204S",AB_204S_DSS,DSS,"Altalink Management Ltd.",AB,50.681729,-110.032251,Alberta,"name:19, node_code:None, node_type:None, owner:None, latitude:None, longitude:None, references:None, ",NULL
"Castle Rock Ridge 205S",AB_205S_GSS,GSS,"Altalink Management Ltd.",AB,49.557522,-113.961163,Alberta,"name:19, node_code:None, node_type:None, owner:None, latitude:None, longitude:None, references:None, ",NULL
"Engstrom 2060S",AB_2060S_DSS,DSS,"ATCO Electric Ltd.",AB,56.198542,-110.944900,Alberta,"name:19, node_code:None, node_type:None, owner:None, latitude:None, longitude:None, references:None, ",NULL
"Newell 2075S",AB_2075S_DSS,DSS,"ATCO Electric Ltd.",AB,50.507276,-112.014560,Alberta,"name:19, node_code:None, node_type:None, owner:None, latitude:None, longitude:None, references:None, ",NULL
"Pinedale 207S",AB_207S_DSS,DSS,"Altalink Management Ltd.",AB,53.600128,-116.140023,Alberta,"name:19, node_code:None, node_type:None, owner:None, latitude:None, longitude:None, references:None, ",NULL
"Meadow Creek 2081S",AB_2081S_DSS,DSS,"ATCO Electric Ltd.",AB,56.256988,-110.921094,Alberta,"name:19, node_code:None, node_type:None, owner:None, latitude:None, longitude:None, references:None, ",NULL
"Meadow Creek 2081S JCT",AB_2081S_JCT,JCT,"ATCO Electric Ltd.",AB,56.259958,-110.921626,Alberta,"name:19, node_code:None, node_type:None, owner:None, latitude:None, longitude:None, references:None, ",NULL
"Dog Rib 2082S",AB_2082S_DSS,DSS,"ATCO Electric Ltd.",AB,56.924123,-111.470518,Alberta,"name:19, node_code:None, node_type:None, owner:None, latitude:None, longitude:None, references:None, ",NULL
"Thornton 2091S",AB_2091S_DSS,DSS,"ATCO Electric Ltd.",AB,54.473575,-118.747443,Alberta,"name:19, node_code:None, node_type:None, owner:None, latitude:None, longitude:None, references:None, ",NULL
"Timberlands 209S",AB_209S_DSS,DSS,"Altalink Management Ltd.",AB,52.289536,-113.753697,Alberta,"name:19, node_code:None, node_type:None, owner:None, latitude:None, longitude:None, references:None, ",NULL
"Timberlands 209S JCT",AB_209S_JCT,JCT,"Altalink Management Ltd.",AB,52.303123,-113.754105,Alberta,"name:19, node_code:None, node_type:None, owner:None, latitude:None, longitude:None, references:None, ",NULL
"Ghost 20S",AB_20S_GSS,GSS,"Altalink Management Ltd.",AB,51.218519,-114.706634,Alberta,"name:19, node_code:None, node_type:None, owner:None, latitude:None, longitude:None, references:None, ",NULL
"N.E. Lacombe 212S",AB_212S_DSS,DSS,"Altalink Management Ltd.",AB,52.499742,-113.627068,Alberta,"name:19, node_code:None, node_type:None, owner:None, latitude:None, longitude:None, references:None, ",NULL
"Hughenden 213S",AB_213S_DSS,DSS,"Altalink Management Ltd.",AB,52.494695,-110.939771,Alberta,"name:19, node_code:None, node_type:None, owner:None, latitude:None, longitude:None, references:None, ",NULL
"Innisfail 214S",AB_214S_GSS,GSS,"Altalink Management Ltd.",AB,52.028537,-114.000697,Alberta,"name:19, node_code:None, node_type:None, owner:None, latitude:None, longitude:None, references:None, ",NULL
"Knightsbridge 216S",AB_216S_DSS,DSS,"Altalink Management Ltd.",AB,53.542868,-113.356355,Alberta,"name:19, node_code:None, node_type:None, owner:None, latitude:None, longitude:None, references:None, ",NULL
"North Red Deer 217S",AB_217S_DSS,DSS,"Altalink Management Ltd.",AB,52.317071,-113.801767,Alberta,"name:19, node_code:None, node_type:None, owner:None, latitude:None, longitude:None, references:None, ",NULL
"Fort Sask. Cogen 218S",AB_218S_GSS,GSS,"Altalink Management Ltd.",AB,53.736184,-113.174092,Alberta,"name:19, node_code:None, node_type:None, owner:None, latitude:None, longitude:None, references:None, ",NULL
"Marion 21S",AB_21S_DSS,DSS,"Altalink Management Ltd.",AB,53.512450,-114.663397,Alberta,"name:19, node_code:None, node_type:None, owner:None, latitude:None, longitude:None, references:None, ",NULL
"Marion 21S JCT",AB_21S_JCT,JCT,"Altalink Management Ltd.",AB,53.512014,-114.662713,Alberta,"name:19, node_code:None, node_type:None, owner:None, latitude:None, longitude:None, references:None, ",NULL
"Sunken Lake 221S",AB_221S_DSS,DSS,"Altalink Management Ltd.",AB,52.408018,-110.581495,Alberta,"name:19, node_code:None, node_type:None, owner:None, latitude:None, longitude:None, references:None, ",NULL
"Sunken Lake 221S JCT",AB_221S_JCT,JCT,"Altalink Management Ltd.",AB,52.408824,-110.580455,Alberta,"name:19, node_code:None, node_type:None, owner:None, latitude:None, longitude:None, references:None, ",NULL
"Strome 223S",AB_223S_DSS,DSS,"Altalink Management Ltd.",AB,52.934308,-112.083274,Alberta,"name:19, node_code:None, node_type:None, owner:None, latitude:None, longitude:None, references:None, ",NULL
"Magrath 225S",AB_225S_GSS,GSS,"Altalink Management Ltd.",AB,49.422076,-112.898242,Alberta,"name:19, node_code:None, node_type:None, owner:None, latitude:None, longitude:None, references:None, ",NULL
"Garden City 226S",AB_226S_DSS,DSS,"Altalink Management Ltd.",AB,49.385946,-112.943463,Alberta,"name:19, node_code:None, node_type:None, owner:None, latitude:None, longitude:None, references:None, ",NULL
"Garden City 226S JCT",AB_226S_JCT,JCT,"Altalink Management Ltd.",AB,49.421400,-112.898448,Alberta,"name:19, node_code:None, node_type:None, owner:None, latitude:None, longitude:None, references:None, ",NULL
"Cutting Lake 227S",AB_227S_DSS,DSS,"Altalink Management Ltd.",AB,50.619854,-111.942869,Alberta,"name:19, node_code:None, node_type:None, owner:None, latitude:None, longitude:None, references:None, ",NULL
"Cutting Lake 227S JCT",AB_227S_JCT,JCT,"Altalink Management Ltd.",AB,50.619880,-111.943311,Alberta,"name:19, node_code:None, node_type:None, owner:None, latitude:None, longitude:None, references:None, ",NULL
"TMPL Niton 228S",AB_228S_ISS,ISS,"Altalink Management Ltd.",AB,53.616119,-115.842906,Alberta,"name:19, node_code:None, node_type:None, owner:None, latitude:None, longitude:None, references:None, ",NULL
"Glenwood 229S",AB_229S_DSS,DSS,"Altalink Management Ltd.",AB,49.348727,-113.387600,Alberta,"name:19, node_code:None, node_type:None, owner:None, latitude:None, longitude:None, references:None, ",NULL
"Wardlow 230S",AB_230S_DSS,DSS,"Altalink Management Ltd.",AB,50.835157,-111.250116,Alberta,"name:19, node_code:None, node_type:None, owner:None, latitude:None, longitude:None, references:None, ",NULL
"Beamer 233S",AB_233S_DSS,DSS,"Altalink Management Ltd.",AB,53.841857,-113.097852,Alberta,"name:19, node_code:None, node_type:None, owner:None, latitude:None, longitude:None, references:None, ",NULL
"Fort Assiniboine 234S",AB_234S_DSS,DSS,"Altalink Management Ltd.",AB,54.311672,-114.768718,Alberta,"name:19, node_code:None, node_type:None, owner:None, latitude:None, longitude:None, references:None, ",NULL
"Fort Assiniboine 234S JCT",AB_234S_JCT,JCT,"Altalink Management Ltd.",AB,54.312355,-114.769667,Alberta,"name:19, node_code:None, node_type:None, owner:None, latitude:None, longitude:None, references:None, ",NULL
"Entwistle 235S",AB_235S_DSS,DSS,"Altalink Management Ltd.",AB,53.583248,-114.985352,Alberta,"name:19, node_code:None, node_type:None, owner:None, latitude:None, longitude:None, references:None, ",NULL
"Foothills 237S",AB_237S_DSS,DSS,"Altalink Management Ltd.",AB,50.598059,-113.714479,Alberta,"name:19, node_code:None, node_type:None, owner:None, latitude:None, longitude:None, references:None, ",NULL
"Shell Harmattan 238S",AB_238S_GSS,GSS,"Altalink Management Ltd.",AB,51.716865,-114.356791,Alberta,"name:19, node_code:None, node_type:None, owner:None, latitude:None, longitude:None, references:None, ",NULL
"Shell Harmattan 238S JCT",AB_238S_JCT,JCT,"Altalink Management Ltd.",AB,51.678814,-114.355984,Alberta,"name:19, node_code:None, node_type:None, owner:None, latitude:None, longitude:None, references:None, ",NULL
"Castle River 239S",AB_239S_GSS,GSS,"Altalink Management Ltd.",AB,49.515911,-114.026624,Alberta,"name:19, node_code:None, node_type:None, owner:None, latitude:None, longitude:None, references:None, ",NULL
"Mcbride Lake 240S",AB_240S_GSS,GSS,"Altalink Management Ltd.",AB,49.612283,-113.481634,Alberta,"name:19, node_code:None, node_type:None, owner:None, latitude:None, longitude:None, references:None, ",NULL
"Mcbride Lake 240S JCT",AB_240S_JCT,JCT,"Altalink Management Ltd.",AB,49.640689,-113.479423,Alberta,"name:19, node_code:None, node_type:None, owner:None, latitude:None, longitude:None, references:None, ",NULL
"Uplands 241S",AB_241S_DSS,DSS,"Altalink Management Ltd.",AB,49.741475,-112.795037,Alberta,"name:19, node_code:None, node_type:None, owner:None, latitude:None, longitude:None, references:None, ",NULL
"Flat Lake 242S",AB_242S_DSS,DSS,"Altalink Management Ltd.",AB,54.768881,-112.675590,Alberta,"name:19, node_code:None, node_type:None, owner:None, latitude:None, longitude:None, references:None, ",NULL
"Flat Lake 242S JCT",AB_242S_JCT,JCT,"Altalink Management Ltd.",AB,54.762122,-112.674861,Alberta,"name:19, node_code:None, node_type:None, owner:None, latitude:None, longitude:None, references:None, ",NULL
"Soderglen 243S",AB_243S_GSS,GSS,"Altalink Management Ltd.",AB,49.538410,-113.523194,Alberta,"name:19, node_code:None, node_type:None, owner:None, latitude:None, longitude:None, references:None, ",NULL
"Bowmanton 244S",AB_244S_DSS,DSS,"Altalink Management Ltd.",AB,50.177560,-110.480231,Alberta,"name:19, node_code:None, node_type:None, owner:None, latitude:None, longitude:None, references:None, ",NULL
"Seebe 245S",AB_245S_DSS,DSS,"Altalink Management Ltd.",AB,51.115639,-115.032201,Alberta,"name:19, node_code:None, node_type:None, owner:None, latitude:None, longitude:None, references:None, ",NULL
"Piper Creek 247S",AB_247S_DSS,DSS,"Altalink Management Ltd.",AB,52.236727,-113.764883,Alberta,"name:19, node_code:None, node_type:None, owner:None, latitude:None, longitude:None, references:None, ",NULL
"Bighorn Plant 250P",AB_250P_GSS,GSS,"Altalink Management Ltd.",AB,52.308276,-116.323716,Alberta,"name:19, node_code:None, node_type:None, owner:None, latitude:None, longitude:None, references:None, ",NULL
"Whitla 251S",AB_251S_DSS,DSS,"Altalink Management Ltd.",AB,49.610195,-111.174820,Alberta,"name:19, node_code:None, node_type:None, owner:None, latitude:None, longitude:None, references:None, ",NULL
"Jarrow 252S",AB_252S_DSS,DSS,"Altalink Management Ltd.",AB,52.965591,-111.431782,Alberta,"name:19, node_code:None, node_type:None, owner:None, latitude:None, longitude:None, references:None, ",NULL
"Jarrow 252S JCT",AB_252S_JCT,JCT,"Altalink Management Ltd.",AB,52.966891,-111.435088,Alberta,"name:19, node_code:None, node_type:None, owner:None, latitude:None, longitude:None, references:None, ",NULL
"Blackie 253S",AB_253S_DSS,DSS,"Altalink Management Ltd.",AB,50.601942,-113.375293,Alberta,"name:19, node_code:None, node_type:None, owner:None, latitude:None, longitude:None, references:None, ",NULL
"Coaldale 254S",AB_254S_GSS,GSS,"Altalink Management Ltd.",AB,49.815920,-112.579584,Alberta,"name:19, node_code:None, node_type:None, owner:None, latitude:None, longitude:None, references:None, ",NULL
"Vulcan 255S",AB_255S_DSS,DSS,"Altalink Management Ltd.",AB,50.368538,-113.254906,Alberta,"name:19, node_code:None, node_type:None, owner:None, latitude:None, longitude:None, references:None, ",NULL
"Harmattan 256S",AB_256S_GSS,GSS,"Altalink Management Ltd.",AB,51.686186,-114.473383,Alberta,"name:19, node_code:None, node_type:None, owner:None, latitude:None, longitude:None, references:None, ",NULL
"Hull 257S",AB_257S_DSS,DSS,"Altalink Management Ltd.",AB,49.990669,-112.143941,Alberta,"name:19, node_code:None, node_type:None, owner:None, latitude:None, longitude:None, references:None, ",NULL
"Dow Hydro Carbons 258S",AB_258S_ISS,ISS,"Altalink Management Ltd.",AB,53.751262,-113.148273,Alberta,"name:19, node_code:None, node_type:None, owner:None, latitude:None, longitude:None, references:None, ",NULL
"Chickadee Creek 259S",AB_259S_DSS,DSS,"Altalink Management Ltd.",AB,54.285788,-116.182328,Alberta,"name:19, node_code:None, node_type:None, owner:None, latitude:None, longitude:None, references:None, ",NULL
"Chickadee Creek 259S JCT",AB_259S_JCT,JCT,"Altalink Management Ltd.",AB,54.288310,-116.184030,Alberta,"name:19, node_code:None, node_type:None, owner:None, latitude:None, longitude:None, references:None, ",NULL
"Rocky Mountain House 262S",AB_262S_DSS,DSS,"Altalink Management Ltd.",AB,52.377059,-114.901890,Alberta,"name:19, node_code:None, node_type:None, owner:None, latitude:None, longitude:None, references:None, ",NULL
"Strachan 263S",AB_263S_DSS,DSS,"Altalink Management Ltd.",AB,52.232517,-115.181324,Alberta,"name:19, node_code:None, node_type:None, owner:None, latitude:None, longitude:None, references:None, ",NULL
"SC1 266S",AB_266S_TSS,TSS,"Altalink Management Ltd.",AB,50.165781,-113.615453,Alberta,"name:19, node_code:None, node_type:None, owner:None, latitude:None, longitude:None, references:None, ","Series capacitor"
"Killarney Lake 267S",AB_267S_DSS,DSS,"Altalink Management Ltd.",AB,52.580321,-110.315715,Alberta,"name:19, node_code:None, node_type:None, owner:None, latitude:None, longitude:None, references:None, ",NULL
"Killarney Lake 267S JCT",AB_267S_JCT,JCT,"Altalink Management Ltd.",AB,52.579566,-110.580960,Alberta,"name:19, node_code:None, node_type:None, owner:None, latitude:None, longitude:None, references:None, ",NULL
"Whitecourt 268S",AB_268S_DSS,DSS,"Altalink Management Ltd.",AB,54.159966,-115.725780,Alberta,"name:19, node_code:None, node_type:None, owner:None, latitude:None, longitude:None, references:None, ",NULL
"Carseland Co-Gen 269S",AB_269S_GSS,GSS,"Altalink Management Ltd.",AB,50.844842,-113.594141,Alberta,"name:19, node_code:None, node_type:None, owner:None, latitude:None, longitude:None, references:None, ",NULL
"Jumping Pound 271S",AB_271S_DSS,DSS,"Altalink Management Ltd.",AB,51.140279,-114.581825,Alberta,"name:19, node_code:None, node_type:None, owner:None, latitude:None, longitude:None, references:None, ",NULL
"Jumping Pound 271S JCT",AB_271S_JCT,JCT,"Altalink Management Ltd.",AB,51.166594,-114.583193,Alberta,"name:19, node_code:None, node_type:None, owner:None, latitude:None, longitude:None, references:None, ",NULL
"Springbank 272S",AB_272S_DSS,DSS,"Altalink Management Ltd.",AB,51.038770,-114.487974,Alberta,"name:19, node_code:None, node_type:None, owner:None, latitude:None, longitude:None, references:None, ",NULL
"Wabamun 2739S",AB_2739S_DSS,DSS,"Altalink Management Ltd.",AB,53.557717,-114.487754,Alberta,"name:19, node_code:None, node_type:None, owner:None, latitude:None, longitude:None, references:None, ",NULL
"Jenner 275S",AB_275S_GSS,GSS,"Altalink Management Ltd.",AB,50.710701,-111.091596,Alberta,"name:19, node_code:None, node_type:None, owner:None, latitude:None, longitude:None, references:None, ",NULL
"Union Carbide Prentiss 276S",AB_276S_ISS,ISS,"Altalink Management Ltd.",AB,52.387288,-113.599967,Alberta,"name:19, node_code:None, node_type:None, owner:None, latitude:None, longitude:None, references:None, ",NULL
"Hayter 277S",AB_277S_DSS,DSS,"Altalink Management Ltd.",AB,52.522039,-110.104729,Alberta,"name:19, node_code:None, node_type:None, owner:None, latitude:None, longitude:None, references:None, ",NULL
"AHS 01 279S",AB_279S_ISS,ISS,"ATCO Electric Ltd.",AB,56.478776,-111.426688,Alberta,"name:19, node_code:None, node_type:None, owner:None, latitude:None, longitude:None, references:None, ",NULL
"Johnson 281S",AB_281S_DSS,DSS,"Altalink Management Ltd.",AB,51.677317,-114.270287,Alberta,"name:19, node_code:None, node_type:None, owner:None, latitude:None, longitude:None, references:None, ",NULL
"Grassland 282S",AB_282S_DSS,DSS,"Altalink Management Ltd.",AB,54.921362,-112.864054,Alberta,"name:19, node_code:None, node_type:None, owner:None, latitude:None, longitude:None, references:None, ",NULL
"Violet Grove 283S",AB_283S_DSS,DSS,"Altalink Management Ltd.",AB,53.177432,-115.003922,Alberta,"name:19, node_code:None, node_type:None, owner:None, latitude:None, longitude:None, references:None, ",NULL
"Nose Creek 284S",AB_284S_DSS,DSS,"Altalink Management Ltd.",AB,51.400206,-114.032038,Alberta,"name:19, node_code:None, node_type:None, owner:None, latitude:None, longitude:None, references:None, ",NULL
"East Camrose 285S",AB_285S_GSS,GSS,"Altalink Management Ltd.",AB,53.025077,-112.781059,Alberta,"name:19, node_code:None, node_type:None, owner:None, latitude:None, longitude:None, references:None, ",NULL
"Yasa 286S",AB_286S_DSS,DSS,"Altalink Management Ltd.",AB,53.552965,-113.360532,Alberta,"name:19, node_code:None, node_type:None, owner:None, latitude:None, longitude:None, references:None, ",NULL
"Hazelwood 287S",AB_287S_DSS,DSS,"Altalink Management Ltd.",AB,52.048566,-113.849874,Alberta,"name:19, node_code:None, node_type:None, owner:None, latitude:None, longitude:None, references:None, ",NULL
"Wolf Creek 288S",AB_288S_DSS,DSS,"Altalink Management Ltd.",AB,52.701327,-113.503954,Alberta,"name:19, node_code:None, node_type:None, owner:None, latitude:None, longitude:None, references:None, ",NULL
"Saunders Lake 289S",AB_289S_DSS,DSS,"Altalink Management Ltd.",AB,53.308252,-113.512204,Alberta,"name:19, node_code:None, node_type:None, owner:None, latitude:None, longitude:None, references:None, ",NULL
"West Brooks 28S",AB_28S_DSS,DSS,"Altalink Management Ltd.",AB,50.556597,-112.017257,Alberta,"name:19, node_code:None, node_type:None, owner:None, latitude:None, longitude:None, references:None, ",NULL
"Cochrane 291S",AB_291S_DSS,DSS,"Altalink Management Ltd.",AB,51.170724,-114.489064,Alberta,"name:19, node_code:None, node_type:None, owner:None, latitude:None, longitude:None, references:None, ",NULL
"Bernese 293S",AB_293S_DSS,DSS,"Altalink Management Ltd.",AB,53.538200,-113.367389,Alberta,"name:19, node_code:None, node_type:None, owner:None, latitude:None, longitude:None, references:None, ",NULL
"Brazeau Outlet Works 294S",AB_294S_DSS,DSS,"Altalink Management Ltd.",AB,52.963582,-115.588669,Alberta,"name:19, node_code:None, node_type:None, owner:None, latitude:None, longitude:None, references:None, ",NULL
"Rosyth 296S",AB_296S_ISS,ISS,"Altalink Management Ltd.",AB,52.638483,-111.278362,Alberta,"name:19, node_code:None, node_type:None, owner:None, latitude:None, longitude:None, references:None, ",NULL
"Rimbey 297S",AB_297S_DSS,DSS,"Altalink Management Ltd.",AB,52.639112,-114.288757,Alberta,"name:19, node_code:None, node_type:None, owner:None, latitude:None, longitude:None, references:None, ",NULL
"Kingman 299S",AB_299S_DSS,DSS,"Altalink Management Ltd.",AB,53.193843,-112.880108,Alberta,"name:19, node_code:None, node_type:None, owner:None, latitude:None, longitude:None, references:None, ",NULL
"Kingman 299S JCT",AB_299S_JCT,JCT,"Altalink Management Ltd.",AB,53.192718,-112.757778,Alberta,"name:19, node_code:None, node_type:None, owner:None, latitude:None, longitude:None, references:None, ",NULL
"Cascade 29S",AB_29S_GSS,GSS,"Altalink Management Ltd.",AB,51.235097,-115.487314,Alberta,"name:19, node_code:None, node_type:None, owner:None, latitude:None, longitude:None, references:None, ",NULL
"Cascade 29S JCT",AB_29S_JCT,JCT,"Altalink Management Ltd.",AB,51.200594,-115.502140,Alberta,"name:19, node_code:None, node_type:None, owner:None, latitude:None, longitude:None, references:None, ","Deleted AB_T756S_DSS"
"Kananaskis 2S",AB_2S_GSS,GSS,"Altalink Management Ltd.",AB,51.097072,-115.057344,Alberta,"name:19, node_code:None, node_type:None, owner:None, latitude:None, longitude:None, references:None, ",NULL
"Queensland 301S",AB_301S_DSS,DSS,"Altalink Management Ltd.",AB,53.194575,-112.880179,Alberta,"name:19, node_code:None, node_type:None, owner:None, latitude:None, longitude:None, references:None, ",NULL
"Queensland 301S JCT",AB_301S_JCT,JCT,"Altalink Management Ltd.",AB,53.194106,-112.879579,Alberta,"name:19, node_code:None, node_type:None, owner:None, latitude:None, longitude:None, references:None, ",NULL
"Cardinal River 302S",AB_302S_DSS,DSS,"Altalink Management Ltd.",AB,53.066287,-117.397584,Alberta,"name:19, node_code:None, node_type:None, owner:None, latitude:None, longitude:None, references:None, ",NULL
"Limestone 304S",AB_304S_DSS,DSS,"Altalink Management Ltd.",AB,51.815628,-115.296675,Alberta,"name:19, node_code:None, node_type:None, owner:None, latitude:None, longitude:None, references:None, ",NULL
"Acheson 305S",AB_305S_DSS,DSS,"Altalink Management Ltd.",AB,53.512879,-113.775850,Alberta,"name:19, node_code:None, node_type:None, owner:None, latitude:None, longitude:None, references:None, ",NULL
"ALBChem Beaverhill Creek 308S",AB_308S_ISS,ISS,"Altalink Management Ltd.",AB,53.798919,-112.897054,Alberta,"name:19, node_code:None, node_type:None, owner:None, latitude:None, longitude:None, references:None, ",NULL
"Sundance 310P",AB_310P_GSS,GSS,"Altalink Management Ltd.",AB,53.507725,-114.553231,Alberta,"name:19, node_code:None, node_type:None, owner:None, latitude:None, longitude:None, references:None, ",NULL
"Sundance 310P JCT",AB_310P_JCT,JCT,"Altalink Management Ltd.",AB,53.473167,-114.443662,Alberta,"name:19, node_code:None, node_type:None, owner:None, latitude:None, longitude:None, references:None, ",NULL
"Fidler 312S",AB_312S_DSS,DSS,"Altalink Management Ltd.",AB,49.569205,-113.821650,Alberta,"name:19, node_code:None, node_type:None, owner:None, latitude:None, longitude:None, references:None, ",NULL
"Raymond Reservoir 313S",AB_313S_GSS,GSS,"Altalink Management Ltd.",AB,49.407103,-112.692069,Alberta,"name:19, node_code:None, node_type:None, owner:None, latitude:None, longitude:None, references:None, ",NULL
"Raymond Reservoir 313S JCT",AB_313S_JCT,JCT,"Altalink Management Ltd.",AB,49.435828,-112.695804,Alberta,"name:19, node_code:None, node_type:None, owner:None, latitude:None, longitude:None, references:None, ",NULL
"Irrican Power 314S",AB_314S_GSS,GSS,"Altalink Management Ltd.",AB,49.580983,-112.735857,Alberta,"name:19, node_code:None, node_type:None, owner:None, latitude:None, longitude:None, references:None, ",NULL
"Chin Chute 315S",AB_315S_GSS,GSS,"Altalink Management Ltd.",AB,49.675734,-112.344887,Alberta,"name:19, node_code:None, node_type:None, owner:None, latitude:None, longitude:None, references:None, ",NULL
"Chin Chute 315S JCT",AB_315S_JCT,JCT,"Altalink Management Ltd.",AB,49.669377,-112.510877,Alberta,"name:19, node_code:None, node_type:None, owner:None, latitude:None, longitude:None, references:None, ",NULL
"West Crossfield 316S",AB_316S_DSS,DSS,"Altalink Management Ltd.",AB,51.437955,-114.023699,Alberta,"name:19, node_code:None, node_type:None, owner:None, latitude:None, longitude:None, references:None, ",NULL
"Baseline 317S",AB_317S_DSS,DSS,"Altalink Management Ltd.",AB,53.541733,-113.353886,Alberta,"name:19, node_code:None, node_type:None, owner:None, latitude:None, longitude:None, references:None, ",NULL
"Scoria 318S",AB_318S_DSS,DSS,"Altalink Management Ltd.",AB,53.815053,-113.134852,Alberta,"name:19, node_code:None, node_type:None, owner:None, latitude:None, longitude:None, references:None, ",NULL
"Keephills 320P",AB_320P_GSS,GSS,"Altalink Management Ltd.",AB,53.450461,-114.447566,Alberta,"name:19, node_code:None, node_type:None, owner:None, latitude:None, longitude:None, references:None, ",NULL
"Al Rothbauer 321S",AB_321S_DSS,DSS,"Altalink Management Ltd.",AB,50.062052,-110.721116,Alberta,"name:19, node_code:None, node_type:None, owner:None, latitude:None, longitude:None, references:None, ",NULL
"Cowley Ridge 322S",AB_322S_DSS,DSS,"Altalink Management Ltd.",AB,49.552774,-114.101588,Alberta,"name:19, node_code:None, node_type:None, owner:None, latitude:None, longitude:None, references:None, ",NULL
"Cowley Ridge 322S JCT",AB_322S_JCT,JCT,"Altalink Management Ltd.",AB,49.553239,-114.101441,Alberta,"name:19, node_code:None, node_type:None, owner:None, latitude:None, longitude:None, references:None, ",NULL
"Whitecourt Power 323S",AB_323S_GSS,GSS,"Altalink Management Ltd.",AB,54.162697,-115.734079,Alberta,"name:19, node_code:None, node_type:None, owner:None, latitude:None, longitude:None, references:None, ",NULL
"Cassils 324S",AB_324S_DSS,DSS,"Altalink Management Ltd.",AB,50.554924,-112.025595,Alberta,"name:19, node_code:None, node_type:None, owner:None, latitude:None, longitude:None, references:None, ",NULL
"Leduc 325S",AB_325S_DSS,DSS,"Altalink Management Ltd.",AB,53.243739,-113.609297,Alberta,"name:19, node_code:None, node_type:None, owner:None, latitude:None, longitude:None, references:None, ",NULL
"HRT Express 329S",AB_329S_ISS,ISS,"Altalink Management Ltd.",AB,52.635408,-111.264288,Alberta,"name:19, node_code:None, node_type:None, owner:None, latitude:None, longitude:None, references:None, ",NULL
"HRT Express 329S JCT",AB_329S_JCT,JCT,"Altalink Management Ltd.",AB,52.638069,-111.276571,Alberta,"name:19, node_code:None, node_type:None, owner:None, latitude:None, longitude:None, references:None, ",NULL
"Barrier 32S",AB_32S_GSS,GSS,"Altalink Management Ltd.",AB,51.035529,-115.040677,Alberta,"name:19, node_code:None, node_type:None, owner:None, latitude:None, longitude:None, references:None, ",NULL
"Genesee 330P",AB_330P_DSS,DSS,"Altalink Management Ltd.",AB,53.345001,-114.304051,Alberta,"name:19, node_code:None, node_type:None, owner:None, latitude:None, longitude:None, references:None, ",NULL
"Ponoka 331S",AB_331S_DSS,DSS,"Altalink Management Ltd.",AB,52.698088,-113.551310,Alberta,"name:19, node_code:None, node_type:None, owner:None, latitude:None, longitude:None, references:None, ",NULL
"Ellis 332S",AB_332S_DSS,DSS,"Altalink Management Ltd.",AB,52.390609,-113.598754,Alberta,"name:19, node_code:None, node_type:None, owner:None, latitude:None, longitude:None, references:None, ",NULL
"Fincastle 336S",AB_336S_DSS,DSS,"Altalink Management Ltd.",AB,49.817006,-111.967734,Alberta,"name:19, node_code:None, node_type:None, owner:None, latitude:None, longitude:None, references:None, ",NULL
"Canada Liquid Air 337S",AB_337S_ISS,ISS,"Altalink Management Ltd.",AB,53.564161,-113.331707,Alberta,"name:19, node_code:None, node_type:None, owner:None, latitude:None, longitude:None, references:None, ",NULL
"Canada Liquid Air 337S JCT",AB_337S_JCT,JCT,"Altalink Management Ltd.",AB,53.563048,-113.342452,Alberta,"name:19, node_code:None, node_type:None, owner:None, latitude:None, longitude:None, references:None, ",NULL
"Cherhill 338S",AB_338S_DSS,DSS,"Altalink Management Ltd.",AB,53.786086,-114.490910,Alberta,"name:19, node_code:None, node_type:None, owner:None, latitude:None, longitude:None, references:None, ",NULL
"Duchess 339S",AB_339S_DSS,DSS,"Altalink Management Ltd.",AB,50.740364,-111.942891,Alberta,"name:19, node_code:None, node_type:None, owner:None, latitude:None, longitude:None, references:None, ",NULL
"Spray 33S",AB_33S_GSS,GSS,"Altalink Management Ltd.",AB,51.075440,-115.402515,Alberta,"name:19, node_code:None, node_type:None, owner:None, latitude:None, longitude:None, references:None, ",NULL
"Sand Hills Sub 341S",AB_341S_DSS,DSS,"Altalink Management Ltd.",AB,50.674447,-110.024909,Alberta,"name:19, node_code:None, node_type:None, owner:None, latitude:None, longitude:None, references:None, ",NULL
"Granite 342S",AB_342S_DSS,DSS,"Altalink Management Ltd.",AB,53.816120,-113.125723,Alberta,"name:19, node_code:None, node_type:None, owner:None, latitude:None, longitude:None, references:None, ",NULL
"Warner 344S",AB_344S_DSS,DSS,"Altalink Management Ltd.",AB,49.283283,-112.225682,Alberta,"name:19, node_code:None, node_type:None, owner:None, latitude:None, longitude:None, references:None, ",NULL
"Kaybob 346S",AB_346S_GSS,GSS,"Altalink Management Ltd.",AB,54.098626,-116.613828,Alberta,"name:19, node_code:None, node_type:None, owner:None, latitude:None, longitude:None, references:None, ",NULL
"Kaybob 346S JCT",AB_346S_JCT,JCT,"Altalink Management Ltd.",AB,54.102299,-116.610203,Alberta,"name:19, node_code:None, node_type:None, owner:None, latitude:None, longitude:None, references:None, ",NULL
"Fox Creek Altalink 347S",AB_347S_DSS,DSS,"Altalink Management Ltd.",AB,54.321831,-116.608926,Alberta,"name:19, node_code:None, node_type:None, owner:None, latitude:None, longitude:None, references:None, ",NULL
"Marlboro 348S",AB_348S_DSS,DSS,"Altalink Management Ltd.",AB,53.677159,-116.786183,Alberta,"name:19, node_code:None, node_type:None, owner:None, latitude:None, longitude:None, references:None, ",NULL
"Marlboro 348S JCT",AB_348S_JCT,JCT,"Altalink Management Ltd.",AB,53.657548,-116.630218,Alberta,"name:19, node_code:None, node_type:None, owner:None, latitude:None, longitude:None, references:None, ",NULL
"Stavely 349S",AB_349S_DSS,DSS,"Altalink Management Ltd.",AB,50.165368,-113.617420,Alberta,"name:19, node_code:None, node_type:None, owner:None, latitude:None, longitude:None, references:None, ",NULL
"Onoway 352S",AB_352S_DSS,DSS,"Altalink Management Ltd.",AB,53.700219,-114.172815,Alberta,"name:19, node_code:None, node_type:None, owner:None, latitude:None, longitude:None, references:None, ",NULL
"Plamondon 353S",AB_353S_DSS,DSS,"Altalink Management Ltd.",AB,54.819351,-112.343721,Alberta,"name:19, node_code:None, node_type:None, owner:None, latitude:None, longitude:None, references:None, ",NULL
"Summerview 354S",AB_354S_GSS,GSS,"Altalink Management Ltd.",AB,49.582918,-113.793204,Alberta,"name:19, node_code:None, node_type:None, owner:None, latitude:None, longitude:None, references:None, ",NULL
"Chevron Knight 355S",AB_355S_ISS,ISS,"Altalink Management Ltd.",AB,54.099907,-116.618970,Alberta,"name:19, node_code:None, node_type:None, owner:None, latitude:None, longitude:None, references:None, ",NULL
"Chevron Knight 355S JCT",AB_355S_JCT,JCT,"Altalink Management Ltd.",AB,54.100924,-116.618289,Alberta,"name:19, node_code:None, node_type:None, owner:None, latitude:None, longitude:None, references:None, ",NULL
"Milo 356S",AB_356S_DSS,DSS,"Altalink Management Ltd.",AB,50.521817,-112.767726,Alberta,"name:19, node_code:None, node_type:None, owner:None, latitude:None, longitude:None, references:None, ",NULL
"Brazeau 358S",AB_358S_DSS,DSS,"Altalink Management Ltd.",AB,52.938770,-115.925287,Alberta,"name:19, node_code:None, node_type:None, owner:None, latitude:None, longitude:None, references:None, ",NULL
"West Pembina 359S",AB_359S_DSS,DSS,"Altalink Management Ltd.",AB,53.256028,-115.557031,Alberta,"name:19, node_code:None, node_type:None, owner:None, latitude:None, longitude:None, references:None, ",NULL
"West Pembina 359S JCT",AB_359S_JCT,JCT,"Altalink Management Ltd.",AB,53.255196,-115.569253,Alberta,"name:19, node_code:None, node_type:None, owner:None, latitude:None, longitude:None, references:None, ",NULL
"Rundle 35S",AB_35S_GSS,GSS,"Altalink Management Ltd.",AB,51.088984,-115.373811,Alberta,"name:19, node_code:None, node_type:None, owner:None, latitude:None, longitude:None, references:None, ",NULL
"Rundle 35S JCT",AB_35S_JCT,JCT,"Altalink Management Ltd.",AB,51.104934,-115.360858,Alberta,"name:19, node_code:None, node_type:None, owner:None, latitude:None, longitude:None, references:None, ",NULL
"Whitecourt Industrial 364S",AB_364S_ISS,ISS,"Altalink Management Ltd.",AB,54.131413,-115.646073,Alberta,"name:19, node_code:None, node_type:None, owner:None, latitude:None, longitude:None, references:None, ",NULL
"Canadian Oxy Astotin Creek 365S",AB_365S_ISS,ISS,"Altalink Management Ltd.",AB,53.792160,-112.880483,Alberta,"name:19, node_code:None, node_type:None, owner:None, latitude:None, longitude:None, references:None, ",NULL
"Harry Smith 367S",AB_367S_DSS,DSS,"Altalink Management Ltd.",AB,53.482145,-113.851695,Alberta,"name:19, node_code:None, node_type:None, owner:None, latitude:None, longitude:None, references:None, ",NULL
"Burdett 368S",AB_368S_GSS,GSS,"Altalink Management Ltd.",AB,49.815331,-111.540598,Alberta,"name:19, node_code:None, node_type:None, owner:None, latitude:None, longitude:None, references:None, ",NULL
"Three Sisters 36S",AB_36S_GSS,GSS,"Altalink Management Ltd.",AB,50.998150,-115.374901,Alberta,"name:19, node_code:None, node_type:None, owner:None, latitude:None, longitude:None, references:None, ",NULL
"North Lethbridge 370S",AB_370S_DSS,DSS,"Altalink Management Ltd.",AB,49.729340,-112.836625,Alberta,"name:19, node_code:None, node_type:None, owner:None, latitude:None, longitude:None, references:None, ",NULL
"Madden 373S",AB_373S_DSS,DSS,"Altalink Management Ltd.",AB,51.533274,-114.208034,Alberta,"name:19, node_code:None, node_type:None, owner:None, latitude:None, longitude:None, references:None, ",NULL
"Madden 373S JCT",AB_373S_JCT,JCT,"Altalink Management Ltd.",AB,51.533131,-114.380489,Alberta,"name:19, node_code:None, node_type:None, owner:None, latitude:None, longitude:None, references:None, ",NULL
"Hardisty 377S",AB_377S_DSS,DSS,"Altalink Management Ltd.",AB,52.645111,-111.275781,Alberta,"name:19, node_code:None, node_type:None, owner:None, latitude:None, longitude:None, references:None, ",NULL
"Caroline 378S",AB_378S_GSS,GSS,"Altalink Management Ltd.",AB,51.967295,-114.764436,Alberta,"name:19, node_code:None, node_type:None, owner:None, latitude:None, longitude:None, references:None, ",NULL
"Waterton 379S",AB_379S_DSS,DSS,"Altalink Management Ltd.",AB,49.309028,-113.999813,Alberta,"name:19, node_code:None, node_type:None, owner:None, latitude:None, longitude:None, references:None, ",NULL
"North Calder 37S",AB_37S_DSS,DSS,"Altalink Management Ltd.",AB,53.614569,-113.587707,Alberta,"name:19, node_code:None, node_type:None, owner:None, latitude:None, longitude:None, references:None, ",NULL
"Kettle's Hill 383S",AB_383S_GSS,GSS,"Altalink Management Ltd.",AB,49.515974,-113.821888,Alberta,"name:19, node_code:None, node_type:None, owner:None, latitude:None, longitude:None, references:None, ",NULL
"Kettle's Hill 383S JCT",AB_383S_JCT,JCT,"Altalink Management Ltd.",AB,49.516730,-113.821332,Alberta,"name:19, node_code:None, node_type:None, owner:None, latitude:None, longitude:None, references:None, ",NULL
"Keystone 384S",AB_384S_DSS,DSS,"Altalink Management Ltd.",AB,53.195983,-114.439451,Alberta,"name:19, node_code:None, node_type:None, owner:None, latitude:None, longitude:None, references:None, ",NULL
"Spring Coulee 385S",AB_385S_GSS,GSS,"Altalink Management Ltd.",AB,49.290746,-113.145876,Alberta,"name:19, node_code:None, node_type:None, owner:None, latitude:None, longitude:None, references:None, ",NULL
"Riverside 388S",AB_388S_DSS,DSS,"Altalink Management Ltd.",AB,53.816447,-113.128971,Alberta,"name:19, node_code:None, node_type:None, owner:None, latitude:None, longitude:None, references:None, ",NULL
"Riverside 388S JCT",AB_388S_JCT,JCT,"Altalink Management Ltd.",AB,53.817511,-113.123223,Alberta,"name:19, node_code:None, node_type:None, owner:None, latitude:None, longitude:None, references:None, ",NULL
"East Edmonton 38S",AB_38S_DSS,DSS,"Altalink Management Ltd.",AB,53.539768,-113.371343,Alberta,"name:19, node_code:None, node_type:None, owner:None, latitude:None, longitude:None, references:None, ",NULL
"Turbo Balzac 391S",AB_391S_DSS,DSS,"Altalink Management Ltd.",AB,51.184312,-113.953676,Alberta,"name:19, node_code:None, node_type:None, owner:None, latitude:None, longitude:None, references:None, ",NULL
"Black Diamond 392S",AB_392S_DSS,DSS,"Altalink Management Ltd.",AB,50.688720,-114.247896,Alberta,"name:19, node_code:None, node_type:None, owner:None, latitude:None, longitude:None, references:None, ",NULL
"Empress 394S",AB_394S_DSS,DSS,"Altalink Management Ltd.",AB,50.674130,-110.028854,Alberta,"name:19, node_code:None, node_type:None, owner:None, latitude:None, longitude:None, references:None, ",NULL
"North Holden 395S",AB_395S_DSS,DSS,"Altalink Management Ltd.",AB,53.280194,-112.221848,Alberta,"name:19, node_code:None, node_type:None, owner:None, latitude:None, longitude:None, references:None, ",NULL
"Pincher Creek 396S",AB_396S_DSS,DSS,"Altalink Management Ltd.",AB,49.516489,-113.926088,Alberta,"name:19, node_code:None, node_type:None, owner:None, latitude:None, longitude:None, references:None, ",NULL
"Benbow 397S",AB_397S_DSS,DSS,"Altalink Management Ltd.",AB,54.103606,-116.608517,Alberta,"name:19, node_code:None, node_type:None, owner:None, latitude:None, longitude:None, references:None, ",NULL
"Bickerdike 39S",AB_39S_DSS,DSS,"Altalink Management Ltd.",AB,53.516682,-116.604432,Alberta,"name:19, node_code:None, node_type:None, owner:None, latitude:None, longitude:None, references:None, ",NULL
"Horseshoe 3S",AB_3S_DSS,DSS,"Altalink Management Ltd.",AB,51.117847,-115.034263,Alberta,"name:19, node_code:None, node_type:None, owner:None, latitude:None, longitude:None, references:None, ",NULL
"Shell AOSP 402S",AB_402S_DSS,DSS,"Altalink Management Ltd.",AB,53.809413,-113.095526,Alberta,"name:19, node_code:None, node_type:None, owner:None, latitude:None, longitude:None, references:None, ",NULL
"Shell AOSP 402S JCT",AB_402S_JCT,JCT,"Altalink Management Ltd.",AB,53.810406,-113.098877,Alberta,"name:19, node_code:None, node_type:None, owner:None, latitude:None, longitude:None, references:None, ",NULL
"Peace Butte 404S",AB_404S_DSS,DSS,"Altalink Management Ltd.",AB,49.768894,-110.715558,Alberta,"name:19, node_code:None, node_type:None, owner:None, latitude:None, longitude:None, references:None, ",NULL
"Waupisoo 405S",AB_405S_DSS,DSS,"Altalink Management Ltd.",AB,54.762887,-112.618578,Alberta,"name:19, node_code:None, node_type:None, owner:None, latitude:None, longitude:None, references:None, ",NULL
"Fickle Lake 406S",AB_406S_DSS,DSS,"Altalink Management Ltd.",AB,53.428630,-116.709910,Alberta,"name:19, node_code:None, node_type:None, owner:None, latitude:None, longitude:None, references:None, ",NULL
"Air Liquide 408S",AB_408S_ISS,ISS,"Air Liquide Canada Inc.",AB,53.798213,-113.084472,Alberta,"name:19, node_code:None, node_type:None, owner:None, latitude:None, longitude:None, references:None, ",NULL
"Scotford 409S",AB_409S_GSS,GSS,"Altalink Management Ltd.",AB,53.789879,-113.096872,Alberta,"name:19, node_code:None, node_type:None, owner:None, latitude:None, longitude:None, references:None, ",NULL
"Wetaskiwin 40S",AB_40S_DSS,DSS,"Altalink Management Ltd.",AB,52.972546,-113.375100,Alberta,"name:19, node_code:None, node_type:None, owner:None, latitude:None, longitude:None, references:None, ",NULL
"Wetaskiwin 40S JCT",AB_40S_JCT,JCT,"Altalink Management Ltd.",AB,53.018061,-113.366260,Alberta,"name:19, node_code:None, node_type:None, owner:None, latitude:None, longitude:None, references:None, ",NULL
"Josephburg 410S",AB_410S_DSS,DSS,"Altalink Management Ltd.",AB,53.782780,-113.109585,Alberta,"name:19, node_code:None, node_type:None, owner:None, latitude:None, longitude:None, references:None, ",NULL
"Mountain Coalbed 411S",AB_411S_DSS,DSS,"Altalink Management Ltd.",AB,53.580351,-117.438188,Alberta,"name:19, node_code:None, node_type:None, owner:None, latitude:None, longitude:None, references:None, ",NULL
"Mountain Coalbed 411S JCT",AB_411S_JCT,JCT,"Altalink Management Ltd.",AB,53.515421,-117.345069,Alberta,"name:19, node_code:None, node_type:None, owner:None, latitude:None, longitude:None, references:None, ",NULL
"Eagle Creek 412S",AB_412S_ISS,ISS,"Altalink Management Ltd.",AB,51.919458,-114.564495,Alberta,"name:19, node_code:None, node_type:None, owner:None, latitude:None, longitude:None, references:None, ",NULL
"Gulf Robb 414S",AB_414S_DSS,DSS,"Altalink Management Ltd.",AB,53.204712,-116.811355,Alberta,"name:19, node_code:None, node_type:None, owner:None, latitude:None, longitude:None, references:None, ",NULL
"Gulf Robb 414S JCT",AB_414S_JCT,JCT,"Altalink Management Ltd.",AB,53.234093,-116.973446,Alberta,"name:19, node_code:None, node_type:None, owner:None, latitude:None, longitude:None, references:None, ",NULL
"Drywood 415S",AB_415S_DSS,DSS,"Altalink Management Ltd.",AB,49.312806,-113.803148,Alberta,"name:19, node_code:None, node_type:None, owner:None, latitude:None, longitude:None, references:None, ",NULL
"Ardenville Wind Farm 418S",AB_418S_GSS,GSS,"Altalink Management Ltd.",AB,49.582950,-113.435229,Alberta,"name:19, node_code:None, node_type:None, owner:None, latitude:None, longitude:None, references:None, ",NULL
"Chestermere 419S",AB_419S_DSS,DSS,"Altalink Management Ltd.",AB,51.009529,-113.813053,Alberta,"name:19, node_code:None, node_type:None, owner:None, latitude:None, longitude:None, references:None, ",NULL
"Medicine Hat 41S",AB_41S_GSS,GSS,"Altalink Management Ltd.",AB,50.100426,-110.727568,Alberta,"name:19, node_code:None, node_type:None, owner:None, latitude:None, longitude:None, references:None, ",NULL
"Broadmoor 420S",AB_420S_DSS,DSS,"Altalink Management Ltd.",AB,53.549592,-113.337761,Alberta,"name:19, node_code:None, node_type:None, owner:None, latitude:None, longitude:None, references:None, ",NULL
"Hays 421S",AB_421S_GSS,GSS,"Altalink Management Ltd.",AB,50.077967,-111.788276,Alberta,"name:19, node_code:None, node_type:None, owner:None, latitude:None, longitude:None, references:None, ",NULL
"Westwood 422S",AB_422S_DSS,DSS,"Altalink Management Ltd.",AB,53.680053,-113.195768,Alberta,"name:19, node_code:None, node_type:None, owner:None, latitude:None, longitude:None, references:None, ",NULL
"Coalspur 426S",AB_426S_DSS,DSS,"Altalink Management Ltd.",AB,53.180423,-117.021965,Alberta,"name:19, node_code:None, node_type:None, owner:None, latitude:None, longitude:None, references:None, ",NULL
"Namaka 428S",AB_428S_DSS,DSS,"Altalink Management Ltd.",AB,51.023863,-113.145574,Alberta,"name:19, node_code:None, node_type:None, owner:None, latitude:None, longitude:None, references:None, ",NULL
"Nelson Lake 429S",AB_429S_DSS,DSS,"Altalink Management Ltd.",AB,52.696413,-113.268379,Alberta,"name:19, node_code:None, node_type:None, owner:None, latitude:None, longitude:None, references:None, ",NULL
"Sarcee 42S",AB_42S_DSS,DSS,"Altalink Management Ltd.",AB,51.010413,-114.166987,Alberta,"name:19, node_code:None, node_type:None, owner:None, latitude:None, longitude:None, references:None, ",NULL
"Hussar 431S",AB_431S_DSS,DSS,"Altalink Management Ltd.",AB,50.966420,-112.662418,Alberta,"name:19, node_code:None, node_type:None, owner:None, latitude:None, longitude:None, references:None, ",NULL
"Carvel 432S",AB_432S_DSS,DSS,"Altalink Management Ltd.",AB,53.552428,-114.122372,Alberta,"name:19, node_code:None, node_type:None, owner:None, latitude:None, longitude:None, references:None, ",NULL
"Stony Plain 434S",AB_434S_DSS,DSS,"Altalink Management Ltd.",AB,53.530861,-113.958012,Alberta,"name:19, node_code:None, node_type:None, owner:None, latitude:None, longitude:None, references:None, ",NULL
"Bassano 435S",AB_435S_DSS,DSS,"Altalink Management Ltd.",AB,50.760708,-112.221760,Alberta,"name:19, node_code:None, node_type:None, owner:None, latitude:None, longitude:None, references:None, ",NULL
"Bassano 435S JCT",AB_435S_JCT,JCT,"Altalink Management Ltd.",AB,50.699570,-112.220489,Alberta,"name:19, node_code:None, node_type:None, owner:None, latitude:None, longitude:None, references:None, ",NULL
"Baymag 437S",AB_437S_DSS,DSS,"Altalink Management Ltd.",AB,51.060424,-115.211093,Alberta,"name:19, node_code:None, node_type:None, owner:None, latitude:None, longitude:None, references:None, ",NULL
"Westlock 438S",AB_438S_GSS,GSS,"Altalink Management Ltd.",AB,54.182275,-113.874507,Alberta,"name:19, node_code:None, node_type:None, owner:None, latitude:None, longitude:None, references:None, ",NULL
"Opal 439S",AB_439S_DSS,DSS,"Altalink Management Ltd.",AB,53.820175,-113.129977,Alberta,"name:19, node_code:None, node_type:None, owner:None, latitude:None, longitude:None, references:None, ",NULL
"Jumping Pound Junction 43S",AB_43S_DSS,DSS,"Altalink Management Ltd.",AB,51.126512,-114.715777,Alberta,"name:19, node_code:None, node_type:None, owner:None, latitude:None, longitude:None, references:None, ",NULL
"Jumping Pound Junction 43S JCT",AB_43S_JCT,JCT,"Altalink Management Ltd.",AB,51.130339,-114.713236,Alberta,"name:19, node_code:None, node_type:None, owner:None, latitude:None, longitude:None, references:None, ",NULL
"South Mayerthorpe 443S",AB_443S_DSS,DSS,"Altalink Management Ltd.",AB,53.919671,-115.172751,Alberta,"name:19, node_code:None, node_type:None, owner:None, latitude:None, longitude:None, references:None, ",NULL
"Elk River 445S",AB_445S_DSS,DSS,"Altalink Management Ltd.",AB,52.941299,-115.893684,Alberta,"name:19, node_code:None, node_type:None, owner:None, latitude:None, longitude:None, references:None, ",NULL
"Elk River 445S JCT",AB_445S_JCT,JCT,"Altalink Management Ltd.",AB,52.948060,-115.881279,Alberta,"name:19, node_code:None, node_type:None, owner:None, latitude:None, longitude:None, references:None, ",NULL
"Enchant 447S",AB_447S_DSS,DSS,"Altalink Management Ltd.",AB,50.280217,-112.411354,Alberta,"name:19, node_code:None, node_type:None, owner:None, latitude:None, longitude:None, references:None, ",NULL
"Enchant 447S JCT",AB_447S_JCT,JCT,"Altalink Management Ltd.",AB,50.278828,-112.112236,Alberta,"name:19, node_code:None, node_type:None, owner:None, latitude:None, longitude:None, references:None, ",NULL
"Bearspaw Plant 44S",AB_44S_GSS,GSS,"Altalink Management Ltd.",AB,51.102763,-114.280530,Alberta,"name:19, node_code:None, node_type:None, owner:None, latitude:None, longitude:None, references:None, ",NULL
"B.F.Goodrich Fort Sask. 452S",AB_452S_ISS,ISS,"Altalink Management Ltd.",AB,53.777480,-113.078151,Alberta,"name:19, node_code:None, node_type:None, owner:None, latitude:None, longitude:None, references:None, ",NULL
"B.F.Goodrich Fort Sask. 452S JCT",AB_452S_JCT,JCT,"Altalink Management Ltd.",AB,53.775278,-113.099463,Alberta,"name:19, node_code:None, node_type:None, owner:None, latitude:None, longitude:None, references:None, ",NULL
"Buck Lake 454S",AB_454S_GSS,GSS,"Altalink Management Ltd.",AB,53.018825,-114.853882,Alberta,"name:19, node_code:None, node_type:None, owner:None, latitude:None, longitude:None, references:None, ",NULL
"Buck Lake 454S JCT",AB_454S_JCT,JCT,"Altalink Management Ltd.",AB,53.163489,-114.855204,Alberta,"name:19, node_code:None, node_type:None, owner:None, latitude:None, longitude:None, references:None, ",NULL
"Bertona 45S",AB_45S_DSS,DSS,"Altalink Management Ltd.",AB,53.460716,-113.339651,Alberta,"name:19, node_code:None, node_type:None, owner:None, latitude:None, longitude:None, references:None, ",NULL
"West Pembina 477S",AB_477S_GSS,GSS,"Altalink Management Ltd.",AB,53.038933,-115.963982,Alberta,"name:19, node_code:None, node_type:None, owner:None, latitude:None, longitude:None, references:None, ",NULL
"Tucuman 478S",AB_478S_DSS,DSS,"Altalink Management Ltd.",AB,52.653436,-111.263212,Alberta,"name:19, node_code:None, node_type:None, owner:None, latitude:None, longitude:None, references:None, ",NULL
"Haynes 482S",AB_482S_ISS,ISS,"Altalink Management Ltd.",AB,52.323122,-113.517510,Alberta,"name:19, node_code:None, node_type:None, owner:None, latitude:None, longitude:None, references:None, ",NULL
"Haynes 482S JCT",AB_482S_JCT,JCT,"Altalink Management Ltd.",AB,52.317544,-113.555189,Alberta,"name:19, node_code:None, node_type:None, owner:None, latitude:None, longitude:None, references:None, ",NULL
"Millar Western 484S",AB_484S_DSS,DSS,"Altalink Management Ltd.",AB,54.144806,-115.696900,Alberta,"name:19, node_code:None, node_type:None, owner:None, latitude:None, longitude:None, references:None, ",NULL
"Blackspring Ridge 485S",AB_485S_DSS,DSS,"Altalink Management Ltd.",AB,50.136419,-112.883915,Alberta,"name:19, node_code:None, node_type:None, owner:None, latitude:None, longitude:None, references:None, ",NULL
"Petro Canada Brazeau River 489S",AB_489S_ISS,ISS,"Altalink Management Ltd.",AB,53.178228,-115.753959,Alberta,"name:19, node_code:None, node_type:None, owner:None, latitude:None, longitude:None, references:None, ",NULL
"Pocaterra 48S",AB_48S_GSS,GSS,"Altalink Management Ltd.",AB,50.698980,-115.119156,Alberta,"name:19, node_code:None, node_type:None, owner:None, latitude:None, longitude:None, references:None, ",NULL
"Chapel Rock 491S",AB_491S_DSS,DSS,"Altalink Management Ltd.",AB,49.676838,-114.297244,Alberta,"name:19, node_code:None, node_type:None, owner:None, latitude:None, longitude:None, references:None, ","Location approximate"
"Monarch 492S",AB_492S_DSS,DSS,"Altalink Management Ltd.",AB,49.830311,-112.980519,Alberta,"name:19, node_code:None, node_type:None, owner:None, latitude:None, longitude:None, references:None, ",NULL
"Monarch 492S JCT",AB_492S_JCT,JCT,"Altalink Management Ltd.",AB,49.727399,-112.959554,Alberta,"name:19, node_code:None, node_type:None, owner:None, latitude:None, longitude:None, references:None, ",NULL
"Tilley 498S",AB_498S_DSS,DSS,"Altalink Management Ltd.",AB,50.490504,-111.652481,Alberta,"name:19, node_code:None, node_type:None, owner:None, latitude:None, longitude:None, references:None, ",NULL
"Interlakes 49S",AB_49S_GSS,GSS,"Altalink Management Ltd.",AB,50.633467,-115.139236,Alberta,"name:19, node_code:None, node_type:None, owner:None, latitude:None, longitude:None, references:None, ",NULL
"AT Plastic 4RS",AB_4RS_ISS,ISS,"Altalink Management Ltd.",AB,53.539388,-113.405828,Alberta,"name:19, node_code:None, node_type:None, owner:None, latitude:None, longitude:None, references:None, ",NULL
"AT Plastic 4RS JCT",AB_4RS_JCT,JCT,"Altalink Management Ltd.",AB,53.540689,-113.402772,Alberta,"name:19, node_code:None, node_type:None, owner:None, latitude:None, longitude:None, references:None, ",NULL
"Flatbush 500S",AB_500S_DSS,DSS,"Altalink Management Ltd.",AB,54.733060,-114.100934,Alberta,"name:19, node_code:None, node_type:None, owner:None, latitude:None, longitude:None, references:None, ",NULL
"Flatbush 500S JCT",AB_500S_JCT,JCT,"Altalink Management Ltd.",AB,54.181239,-113.900696,Alberta,"name:19, node_code:None, node_type:None, owner:None, latitude:None, longitude:None, references:None, ",NULL
"Shell Waterton 502S",AB_502S_ISS,ISS,"Altalink Management Ltd.",AB,49.307344,-114.008373,Alberta,"name:19, node_code:None, node_type:None, owner:None, latitude:None, longitude:None, references:None, ",NULL
"Queenstown 504S",AB_504S_DSS,DSS,"Altalink Management Ltd.",AB,50.602402,-113.027388,Alberta,"name:19, node_code:None, node_type:None, owner:None, latitude:None, longitude:None, references:None, ",NULL
"Fort Hills 505S",AB_505S_GSS,GSS,Suncor,AB,57.390711,-111.587174,Alberta,"name:19, node_code:None, node_type:None, owner:None, latitude:None, longitude:None, references:None, ",NULL
"Lakesend 508S",AB_508S_DSS,DSS,"ATCO Electric Ltd.",AB,52.297209,-111.077616,Alberta,"name:19, node_code:None, node_type:None, owner:None, latitude:None, longitude:None, references:None, ",NULL
"Sunnybrook 510S",AB_510S_DSS,DSS,"Altalink Management Ltd.",AB,53.352414,-114.310370,Alberta,"name:19, node_code:None, node_type:None, owner:None, latitude:None, longitude:None, references:None, ",NULL
"Crossings 511S",AB_511S_DSS,DSS,"Altalink Management Ltd.",AB,50.961652,-113.719549,Alberta,"name:19, node_code:None, node_type:None, owner:None, latitude:None, longitude:None, references:None, ",NULL
"Hartell 512S",AB_512S_DSS,DSS,"Altalink Management Ltd.",AB,50.630868,-114.239985,Alberta,"name:19, node_code:None, node_type:None, owner:None, latitude:None, longitude:None, references:None, ",NULL
"Hartell 512S JCT",AB_512S_JCT,JCT,"Altalink Management Ltd.",AB,50.630243,-114.239724,Alberta,"name:19, node_code:None, node_type:None, owner:None, latitude:None, longitude:None, references:None, ",NULL
"Lundbreck 513S",AB_513S_DSS,DSS,"Altalink Management Ltd.",AB,49.785668,-114.113718,Alberta,"name:19, node_code:None, node_type:None, owner:None, latitude:None, longitude:None, references:None, ",NULL
"Fedpipe Judy Creek 515S",AB_515S_ISS,ISS,"Altalink Management Ltd.",AB,54.500458,-115.419151,Alberta,"name:19, node_code:None, node_type:None, owner:None, latitude:None, longitude:None, references:None, ",NULL
"Wainright 51S",AB_51S_DSS,DSS,"Altalink Management Ltd.",AB,52.858497,-110.923727,Alberta,"name:19, node_code:None, node_type:None, owner:None, latitude:None, longitude:None, references:None, ",NULL
"Bennett 520S",AB_520S_DSS,DSS,"Altalink Management Ltd.",AB,50.955789,-113.718899,Alberta,"name:19, node_code:None, node_type:None, owner:None, latitude:None, longitude:None, references:None, ",NULL
"Cooking Lake 522S",AB_522S_DSS,DSS,"Altalink Management Ltd.",AB,53.368942,-113.097790,Alberta,"name:19, node_code:None, node_type:None, owner:None, latitude:None, longitude:None, references:None, ",NULL
"Bullshead 523S",AB_523S_DSS,DSS,"Altalink Management Ltd.",AB,49.968333,-110.756218,Alberta,"name:19, node_code:None, node_type:None, owner:None, latitude:None, longitude:None, references:None, ",NULL
"Fiberglass 524S",AB_524S_DSS,DSS,"Altalink Management Ltd.",AB,53.571263,-113.349733,Alberta,"name:19, node_code:None, node_type:None, owner:None, latitude:None, longitude:None, references:None, ",NULL
"Fiberglass 524S JCT",AB_524S_JCT,JCT,"Altalink Management Ltd.",AB,53.572506,-113.342796,Alberta,"name:19, node_code:None, node_type:None, owner:None, latitude:None, longitude:None, references:None, ",NULL
"Carseland 525S",AB_525S_ISS,ISS,"Altalink Management Ltd.",AB,50.848377,-113.590153,Alberta,"name:19, node_code:None, node_type:None, owner:None, latitude:None, longitude:None, references:None, ",NULL
"Buffalo Creek 526S",AB_526S_DSS,DSS,"ATCO Electric Ltd.",AB,53.121259,-111.198181,Alberta,"name:19, node_code:None, node_type:None, owner:None, latitude:None, longitude:None, references:None, ",NULL
"Coal Valley 527S",AB_527S_DSS,DSS,"Altalink Management Ltd.",AB,53.052380,-116.769341,Alberta,"name:19, node_code:None, node_type:None, owner:None, latitude:None, longitude:None, references:None, ",NULL
"Coal Valley 527S JCT",AB_527S_JCT,JCT,"Altalink Management Ltd.",AB,53.180772,-117.021074,Alberta,"name:19, node_code:None, node_type:None, owner:None, latitude:None, longitude:None, references:None, ",NULL
"Blue Trail 528S",AB_528S_DSS,DSS,"Altalink Management Ltd.",AB,49.668533,-113.452312,Alberta,"name:19, node_code:None, node_type:None, owner:None, latitude:None, longitude:None, references:None, ",NULL
"Blue Trail 528S JCT",AB_528S_JCT,JCT,"Altalink Management Ltd.",AB,49.640784,-113.456390,Alberta,"name:19, node_code:None, node_type:None, owner:None, latitude:None, longitude:None, references:None, ",NULL
"Schrader Creek 531S",AB_531S_DSS,DSS,"Altalink Management Ltd.",AB,51.968717,-114.640177,Alberta,"name:19, node_code:None, node_type:None, owner:None, latitude:None, longitude:None, references:None, ",NULL
"Schrader Creek 531S JCT",AB_531S_JCT,JCT,"Altalink Management Ltd.",AB,51.969527,-114.639271,Alberta,"name:19, node_code:None, node_type:None, owner:None, latitude:None, longitude:None, references:None, ",NULL
"Eckville 534S",AB_534S_DSS,DSS,"Altalink Management Ltd.",AB,52.349091,-114.373710,Alberta,"name:19, node_code:None, node_type:None, owner:None, latitude:None, longitude:None, references:None, ",NULL
"Eckville 534S JCT",AB_534S_JCT,JCT,"Altalink Management Ltd.",AB,52.348707,-114.291556,Alberta,"name:19, node_code:None, node_type:None, owner:None, latitude:None, longitude:None, references:None, ",NULL
"Joffre 535S",AB_535S_GSS,GSS,"Altalink Management Ltd.",AB,52.303844,-113.560056,Alberta,"name:19, node_code:None, node_type:None, owner:None, latitude:None, longitude:None, references:None, ",NULL
"Brookfield 536S",AB_536S_ISS,ISS,"Altalink Management Ltd.",AB,52.289588,-113.545243,Alberta,"name:19, node_code:None, node_type:None, owner:None, latitude:None, longitude:None, references:None, ",NULL
"Buford 538S",AB_538S_DSS,DSS,"Altalink Management Ltd.",AB,53.249611,-113.828560,Alberta,"name:19, node_code:None, node_type:None, owner:None, latitude:None, longitude:None, references:None, ",NULL
"Sunday Creek 539S",AB_539S_DSS,DSS,"Altalink Management Ltd.",AB,55.581247,-110.869132,Alberta,"name:19, node_code:None, node_type:None, owner:None, latitude:None, longitude:None, references:None, ",NULL
"Ervick 542S",AB_542S_DSS,DSS,"Altalink Management Ltd.",AB,52.989877,-112.908208,Alberta,"name:19, node_code:None, node_type:None, owner:None, latitude:None, longitude:None, references:None, ",NULL
"Provost 545S",AB_545S_DSS,DSS,"Altalink Management Ltd.",AB,52.346333,-110.291908,Alberta,"name:19, node_code:None, node_type:None, owner:None, latitude:None, longitude:None, references:None, ",NULL
"Fort Sask. 54S",AB_54S_DSS,DSS,"Altalink Management Ltd.",AB,53.714510,-113.190547,Alberta,"name:19, node_code:None, node_type:None, owner:None, latitude:None, longitude:None, references:None, ",NULL
"Chevron Kaybob 551S",AB_551S_ISS,ISS,"Altalink Management Ltd.",AB,54.100483,-116.618143,Alberta,"name:19, node_code:None, node_type:None, owner:None, latitude:None, longitude:None, references:None, ",NULL
"Travers 554S",AB_554S_DSS,DSS,"Altalink Management Ltd.",AB,50.136003,-112.724420,Alberta,"name:19, node_code:None, node_type:None, owner:None, latitude:None, longitude:None, references:None, ",NULL
"Castle Downs 557S",AB_557S_DSS,DSS,EPCOR,AB,53.624532,-113.490024,Alberta,"name:19, node_code:None, node_type:None, owner:None, latitude:None, longitude:None, references:None, ",NULL
"Eyre 558S",AB_558S_DSS,DSS,"Altalink Management Ltd.",AB,52.347609,-110.767492,Alberta,"name:19, node_code:None, node_type:None, owner:None, latitude:None, longitude:None, references:None, ",NULL
"Olds 55S",AB_55S_DSS,DSS,"Altalink Management Ltd.",AB,51.795560,-114.152738,Alberta,"name:19, node_code:None, node_type:None, owner:None, latitude:None, longitude:None, references:None, ",NULL
"Cypress 562S",AB_562S_DSS,DSS,"Altalink Management Ltd.",AB,50.657384,-110.054675,Alberta,"name:19, node_code:None, node_type:None, owner:None, latitude:None, longitude:None, references:None, ",NULL
"Boyle 56S",AB_56S_DSS,DSS,"Altalink Management Ltd.",AB,54.584558,-112.802423,Alberta,"name:19, node_code:None, node_type:None, owner:None, latitude:None, longitude:None, references:None, ",NULL
"Nilrem 574S",AB_574S_DSS,DSS,"Altalink Management Ltd.",AB,52.607934,-111.239288,Alberta,"name:19, node_code:None, node_type:None, owner:None, latitude:None, longitude:None, references:None, ",NULL
"Sundre 575S",AB_575S_DSS,DSS,"Altalink Management Ltd.",AB,51.912096,-114.664987,Alberta,"name:19, node_code:None, node_type:None, owner:None, latitude:None, longitude:None, references:None, ",NULL
"Sylvan Lake 580S",AB_580S_DSS,DSS,"Altalink Management Ltd.",AB,52.232434,-114.112943,Alberta,"name:19, node_code:None, node_type:None, owner:None, latitude:None, longitude:None, references:None, ",NULL
"Ricinus 581S",AB_581S_DSS,DSS,"Altalink Management Ltd.",AB,52.037478,-115.140097,Alberta,"name:19, node_code:None, node_type:None, owner:None, latitude:None, longitude:None, references:None, ",NULL
"Ricinus 581S JCT",AB_581S_JCT,JCT,"Altalink Management Ltd.",AB,52.056458,-114.903791,Alberta,"name:19, node_code:None, node_type:None, owner:None, latitude:None, longitude:None, references:None, ",NULL
"Edson 58S",AB_58S_GSS,GSS,"Altalink Management Ltd.",AB,53.578365,-116.502289,Alberta,"name:19, node_code:None, node_type:None, owner:None, latitude:None, longitude:None, references:None, ",NULL
"Lakeview 593S",AB_593S_DSS,DSS,"Altalink Management Ltd.",AB,49.670648,-112.778175,Alberta,"name:19, node_code:None, node_type:None, owner:None, latitude:None, longitude:None, references:None, ",NULL
"Batte Sands 594S",AB_594S_ISS,ISS,"Altalink Management Ltd.",AB,52.631363,-111.278733,Alberta,"name:19, node_code:None, node_type:None, owner:None, latitude:None, longitude:None, references:None, ",NULL
"Spruce Grove 595S",AB_595S_DSS,DSS,"Altalink Management Ltd.",AB,53.567247,-113.783867,Alberta,"name:19, node_code:None, node_type:None, owner:None, latitude:None, longitude:None, references:None, ",NULL
"Peigan 59S",AB_59S_DSS,DSS,"Altalink Management Ltd.",AB,49.643004,-113.586300,Alberta,"name:19, node_code:None, node_type:None, owner:None, latitude:None, longitude:None, references:None, ",NULL
"AT Plastic 5RS",AB_5RS_ISS,ISS,"Altalink Management Ltd.",AB,53.536766,-113.405878,Alberta,"name:19, node_code:None, node_type:None, owner:None, latitude:None, longitude:None, references:None, ",NULL
"East Calgary 5S",AB_5S_DSS,DSS,"Altalink Management Ltd.",AB,51.026456,-114.037616,Alberta,"name:19, node_code:None, node_type:None, owner:None, latitude:None, longitude:None, references:None, ",NULL
"Cold Creek 602S",AB_602S_DSS,DSS,"Altalink Management Ltd.",AB,53.368355,-117.573055,Alberta,"name:19, node_code:None, node_type:None, owner:None, latitude:None, longitude:None, references:None, ",NULL
"Granum 604S",AB_604S_DSS,DSS,"Altalink Management Ltd.",AB,50.035005,-113.391223,Alberta,"name:19, node_code:None, node_type:None, owner:None, latitude:None, longitude:None, references:None, ",NULL
"Wheatland 609S",AB_609S_GSS,GSS,"ATCO Electric Ltd.",AB,51.211711,-112.562086,Alberta,"name:19, node_code:None, node_type:None, owner:None, latitude:None, longitude:None, references:None, ",NULL
"Halkirk 615S",AB_615S_GSS,GSS,"ATCO Electric Ltd.",AB,52.279408,-112.049138,Alberta,"name:19, node_code:None, node_type:None, owner:None, latitude:None, longitude:None, references:None, ",NULL
"Riverbend 618S",AB_618S_DSS,DSS,"Altalink Management Ltd.",AB,49.611589,-112.868579,Alberta,"name:19, node_code:None, node_type:None, owner:None, latitude:None, longitude:None, references:None, ",NULL
"Riverbend 618S JCT",AB_618S_JCT,JCT,"Altalink Management Ltd.",AB,49.640271,-112.869896,Alberta,"name:19, node_code:None, node_type:None, owner:None, latitude:None, longitude:None, references:None, ",NULL
"Lodgepole 61S",AB_61S_DSS,DSS,"Altalink Management Ltd.",AB,53.160876,-115.316126,Alberta,"name:19, node_code:None, node_type:None, owner:None, latitude:None, longitude:None, references:None, ",NULL
"Argyll 629S",AB_629S_DSS,DSS,EPCOR,AB,53.504540,-113.449529,Alberta,"name:19, node_code:None, node_type:None, owner:None, latitude:None, longitude:None, references:None, ",NULL
"Brazeau 62S",AB_62S_GSS,GSS,"Altalink Management Ltd.",AB,52.911510,-115.373052,Alberta,"name:19, node_code:None, node_type:None, owner:None, latitude:None, longitude:None, references:None, ",NULL
"Russell 632S",AB_632S_DSS,DSS,"Altalink Management Ltd.",AB,49.516081,-114.027645,Alberta,"name:19, node_code:None, node_type:None, owner:None, latitude:None, longitude:None, references:None, ",NULL
"Raven River 634S",AB_634S_DSS,DSS,"Altalink Management Ltd.",AB,52.006959,-114.722678,Alberta,"name:19, node_code:None, node_type:None, owner:None, latitude:None, longitude:None, references:None, ",NULL
"Raven River 634S JCT",AB_634S_JCT,JCT,"Altalink Management Ltd.",AB,51.996453,-114.809438,Alberta,"name:19, node_code:None, node_type:None, owner:None, latitude:None, longitude:None, references:None, ",NULL
"New Rose Valley 635S",AB_635S_DSS,DSS,"Altalink Management Ltd.",AB,53.430008,-114.466064,Alberta,"name:19, node_code:None, node_type:None, owner:None, latitude:None, longitude:None, references:None, ",NULL
"New Rose Valley 635S JCT",AB_635S_JCT,JCT,"Altalink Management Ltd.",AB,53.439827,-114.468628,Alberta,"name:19, node_code:None, node_type:None, owner:None, latitude:None, longitude:None, references:None, ",NULL
"Esso Judy Creek 638S",AB_638S_ISS,ISS,"Altalink Management Ltd.",AB,54.475946,-115.642437,Alberta,"name:19, node_code:None, node_type:None, owner:None, latitude:None, longitude:None, references:None, ",NULL
"Esso Judy Creek 638S JCT",AB_638S_JCT,JCT,"Altalink Management Ltd.",AB,54.460514,-115.574408,Alberta,"name:19, node_code:None, node_type:None, owner:None, latitude:None, longitude:None, references:None, ",NULL
"Red Deer 63S",AB_63S_DSS,DSS,"Altalink Management Ltd.",AB,52.236765,-113.869170,Alberta,"name:19, node_code:None, node_type:None, owner:None, latitude:None, longitude:None, references:None, ",NULL
"Metiskow 648S",AB_648S_DSS,DSS,"Altalink Management Ltd.",AB,52.405529,-110.579964,Alberta,"name:19, node_code:None, node_type:None, owner:None, latitude:None, longitude:None, references:None, ",NULL
"Chappice Lake 649S",AB_649S_DSS,DSS,"Altalink Management Ltd.",AB,50.180374,-110.481204,Alberta,"name:19, node_code:None, node_type:None, owner:None, latitude:None, longitude:None, references:None, ",NULL
"East Crossfield 64S",AB_64S_DSS,DSS,"Altalink Management Ltd.",AB,51.431387,-113.837206,Alberta,"name:19, node_code:None, node_type:None, owner:None, latitude:None, longitude:None, references:None, ",NULL
"East Crossfield 64S JCT",AB_64S_JCT,JCT,"Altalink Management Ltd.",AB,51.431060,-113.837955,Alberta,"name:19, node_code:None, node_type:None, owner:None, latitude:None, longitude:None, references:None, ",NULL
"Truweld Grating 6500S",AB_6500S_ISS,ISS,"Altalink Management Ltd.",AB,52.980129,-113.365579,Alberta,"name:19, node_code:None, node_type:None, owner:None, latitude:None, longitude:None, references:None, ",NULL
"Truweld Grating 6500S JCT",AB_6500S_JCT,JCT,"Altalink Management Ltd.",AB,52.980449,-113.373134,Alberta,"name:19, node_code:None, node_type:None, owner:None, latitude:None, longitude:None, references:None, ",NULL
"Hansman Lake 650S",AB_650S_DSS,DSS,"Altalink Management Ltd.",AB,52.406920,-110.586555,Alberta,"name:19, node_code:None, node_type:None, owner:None, latitude:None, longitude:None, references:None, ",NULL
"Kirby 651S",AB_651S_DSS,DSS,"Altalink Management Ltd.",AB,55.343350,-111.028843,Alberta,"name:19, node_code:None, node_type:None, owner:None, latitude:None, longitude:None, references:None, ",NULL
"Summit 653S",AB_653S_DSS,DSS,"Altalink Management Ltd.",AB,51.396623,-114.014775,Alberta,"name:19, node_code:None, node_type:None, owner:None, latitude:None, longitude:None, references:None, ",NULL
"Summit 653S JCT",AB_653S_JCT,JCT,"Altalink Management Ltd.",AB,51.394697,-113.990049,Alberta,"name:19, node_code:None, node_type:None, owner:None, latitude:None, longitude:None, references:None, ",NULL
"Clipper 656S",AB_656S_ISS,ISS,"Altalink Management Ltd.",AB,52.638466,-111.278859,Alberta,"name:19, node_code:None, node_type:None, owner:None, latitude:None, longitude:None, references:None, ",NULL
"Summerside 657S",AB_657S_DSS,DSS,"Altalink Management Ltd.",AB,53.434498,-113.459578,Alberta,"name:19, node_code:None, node_type:None, owner:None, latitude:None, longitude:None, references:None, ",NULL
"Chard 658S",AB_658S_DSS,DSS,"ATCO Electric Ltd.",AB,55.773494,-111.292635,Alberta,"name:19, node_code:None, node_type:None, owner:None, latitude:None, longitude:None, references:None, ",NULL
"Chard 658S JCT",AB_658S_JCT,JCT,"ATCO Electric Ltd.",AB,55.772380,-111.294279,Alberta,"name:19, node_code:None, node_type:None, owner:None, latitude:None, longitude:None, references:None, ",NULL
"Pegasus Lake 659S",AB_659S_DSS,DSS,"Altalink Management Ltd.",AB,54.326310,-115.696711,Alberta,"name:19, node_code:None, node_type:None, owner:None, latitude:None, longitude:None, references:None, ",NULL
"Pegasus Lake 659S JCT",AB_659S_JCT,JCT,"Altalink Management Ltd.",AB,54.326771,-115.685289,Alberta,"name:19, node_code:None, node_type:None, owner:None, latitude:None, longitude:None, references:None, ",NULL
"High River 65S",AB_65S_DSS,DSS,"Altalink Management Ltd.",AB,50.600596,-113.907318,Alberta,"name:19, node_code:None, node_type:None, owner:None, latitude:None, longitude:None, references:None, ",NULL
"Laura Lake 661S",AB_661S_DSS,DSS,"Altalink Management Ltd.",AB,54.322989,-115.673431,Alberta,"name:19, node_code:None, node_type:None, owner:None, latitude:None, longitude:None, references:None, ",NULL
"Laura Lake 661S JCT",AB_661S_JCT,JCT,"Altalink Management Ltd.",AB,54.319465,-115.688444,Alberta,"name:19, node_code:None, node_type:None, owner:None, latitude:None, longitude:None, references:None, ",NULL
"Dome 665S",AB_665S_DSS,DSS,EPCOR,AB,53.456606,-113.481186,Alberta,"name:19, node_code:None, node_type:None, owner:None, latitude:None, longitude:None, references:None, ",NULL
"Bowron 674S",AB_674S_DSS,DSS,"Altalink Management Ltd.",AB,49.660105,-112.891400,Alberta,"name:19, node_code:None, node_type:None, owner:None, latitude:None, longitude:None, references:None, ",NULL
"Okotoks 678S",AB_678S_DSS,DSS,"Altalink Management Ltd.",AB,50.718484,-113.902889,Alberta,"name:19, node_code:None, node_type:None, owner:None, latitude:None, longitude:None, references:None, ",NULL
"Bear Creek 679S",AB_679S_DSS,DSS,"ATCO Electric Ltd.",AB,55.070315,-118.688945,Alberta,"name:19, node_code:None, node_type:None, owner:None, latitude:None, longitude:None, references:None, ",NULL
"Bear Creek 679S JCT",AB_679S_JCT,JCT,"ATCO Electric Ltd.",AB,55.067484,-118.692264,Alberta,"name:19, node_code:None, node_type:None, owner:None, latitude:None, longitude:None, references:None, ",NULL
"Stirling 67S",AB_67S_GSS,GSS,"Altalink Management Ltd.",AB,49.501722,-112.493509,Alberta,"name:19, node_code:None, node_type:None, owner:None, latitude:None, longitude:None, references:None, ",NULL
"Bannerman 681S",AB_681S_DSS,DSS,"Altalink Management Ltd.",AB,53.838587,-113.112196,Alberta,"name:19, node_code:None, node_type:None, owner:None, latitude:None, longitude:None, references:None, ",NULL
"Willesdengreen 68S",AB_68S_DSS,DSS,"Altalink Management Ltd.",AB,52.651507,-115.078971,Alberta,"name:19, node_code:None, node_type:None, owner:None, latitude:None, longitude:None, references:None, ",NULL
"Willesdengreen 68S JCT",AB_68S_JCT,JCT,"Altalink Management Ltd.",AB,52.647792,-115.081306,Alberta,"name:19, node_code:None, node_type:None, owner:None, latitude:None, longitude:None, references:None, ",NULL
"Jackfish 698S",AB_698S_DSS,DSS,"Altalink Management Ltd.",AB,55.533012,-110.904021,Alberta,"name:19, node_code:None, node_type:None, owner:None, latitude:None, longitude:None, references:None, ",NULL
"North Barrhead 69S",AB_69S_DSS,DSS,"Altalink Management Ltd.",AB,54.155822,-114.473306,Alberta,"name:19, node_code:None, node_type:None, owner:None, latitude:None, longitude:None, references:None, ",NULL
"Bonnyville 700S",AB_700S_DSS,DSS,"ATCO Electric Ltd.",AB,54.296393,-110.778766,Alberta,"name:19, node_code:None, node_type:None, owner:None, latitude:None, longitude:None, references:None, ",NULL
"Blue Ridge Lumber 701S",AB_701S_ISS,ISS,"Altalink Management Ltd.",AB,54.141575,-115.358189,Alberta,"name:19, node_code:None, node_type:None, owner:None, latitude:None, longitude:None, references:None, ",NULL
"Kitscoty 705S",AB_705S_DSS,DSS,"ATCO Electric Ltd.",AB,53.366522,-110.325850,Alberta,"name:19, node_code:None, node_type:None, owner:None, latitude:None, longitude:None, references:None, ",NULL
"Irish Creek 706S",AB_706S_DSS,DSS,"ATCO Electric Ltd.",AB,53.758037,-110.847635,Alberta,"name:19, node_code:None, node_type:None, owner:None, latitude:None, longitude:None, references:None, ",NULL
"St. Paul 707S",AB_707S_DSS,DSS,"ATCO Electric Ltd.",AB,54.006504,-111.315348,Alberta,"name:19, node_code:None, node_type:None, owner:None, latitude:None, longitude:None, references:None, ",NULL
"Vegreville 709S",AB_709S_DSS,DSS,"ATCO Electric Ltd.",AB,53.475301,-112.065011,Alberta,"name:19, node_code:None, node_type:None, owner:None, latitude:None, longitude:None, references:None, ",NULL
"Vermilion 710S",AB_710S_DSS,DSS,"ATCO Electric Ltd.",AB,53.358165,-110.856918,Alberta,"name:19, node_code:None, node_type:None, owner:None, latitude:None, longitude:None, references:None, ",NULL
"Leming Lake 715S",AB_715S_DSS,DSS,"ATCO Electric Ltd.",AB,54.604199,-110.476697,Alberta,"name:19, node_code:None, node_type:None, owner:None, latitude:None, longitude:None, references:None, ",NULL
"Lloydminster 716S",AB_716S_DSS,DSS,"ATCO Electric Ltd.",AB,53.250061,-110.052239,Alberta,"name:19, node_code:None, node_type:None, owner:None, latitude:None, longitude:None, references:None, ",NULL
"Ethel Lake 717S",AB_717S_DSS,DSS,"ATCO Electric Ltd.",AB,54.541389,-110.369282,Alberta,"name:19, node_code:None, node_type:None, owner:None, latitude:None, longitude:None, references:None, ",NULL
"Parsons Creek 718S",AB_718S_DSS,DSS,"ATCO Electric Ltd.",AB,56.780048,-111.430239,Alberta,"name:19, node_code:None, node_type:None, owner:None, latitude:None, longitude:None, references:None, ",NULL
"Lamoureux 71S",AB_71S_DSS,DSS,"Altalink Management Ltd.",AB,53.740713,-113.208299,Alberta,"name:19, node_code:None, node_type:None, owner:None, latitude:None, longitude:None, references:None, ",NULL
"Wabasca 720S",AB_720S_DSS,DSS,"ATCO Electric Ltd.",AB,55.951292,-113.812010,Alberta,"name:19, node_code:None, node_type:None, owner:None, latitude:None, longitude:None, references:None, ",NULL
"Lacorey 721S",AB_721S_DSS,DSS,"ATCO Electric Ltd.",AB,54.492640,-110.760510,Alberta,"name:19, node_code:None, node_type:None, owner:None, latitude:None, longitude:None, references:None, ",NULL
"Crystal Lake 722S",AB_722S_DSS,DSS,"ATCO Electric Ltd.",AB,55.184601,-118.755117,Alberta,"name:19, node_code:None, node_type:None, owner:None, latitude:None, longitude:None, references:None, ",NULL
"Christina Lake 723S",AB_723S_GSS,GSS,"Altalink Management Ltd.",AB,55.560303,-110.914388,Alberta,"name:19, node_code:None, node_type:None, owner:None, latitude:None, longitude:None, references:None, ",NULL
"Hines Creek 724S",AB_724S_DSS,DSS,"ATCO Electric Ltd.",AB,56.277179,-118.580036,Alberta,"name:19, node_code:None, node_type:None, owner:None, latitude:None, longitude:None, references:None, ",NULL
"Goose River 725S",AB_725S_DSS,DSS,"ATCO Electric Ltd.",AB,54.694095,-116.643506,Alberta,"name:19, node_code:None, node_type:None, owner:None, latitude:None, longitude:None, references:None, ",NULL
"Kinuso 727S",AB_727S_DSS,DSS,"ATCO Electric Ltd.",AB,55.317067,-115.359123,Alberta,"name:19, node_code:None, node_type:None, owner:None, latitude:None, longitude:None, references:None, ",NULL
"Mercer Hill 728S",AB_728S_DSS,DSS,"ATCO Electric Ltd.",AB,55.287583,-118.768626,Alberta,"name:19, node_code:None, node_type:None, owner:None, latitude:None, longitude:None, references:None, ",NULL
"Mercer Hill 728S JCT",AB_728S_JCT,JCT,"ATCO Electric Ltd.",AB,55.257963,-118.743660,Alberta,"name:19, node_code:None, node_type:None, owner:None, latitude:None, longitude:None, references:None, ",NULL
"Otauwau 729S",AB_729S_DSS,DSS,"ATCO Electric Ltd.",AB,55.266750,-114.590800,Alberta,"name:19, node_code:None, node_type:None, owner:None, latitude:None, longitude:None, references:None, ",NULL
"Leismer 72S",AB_72S_DSS,DSS,"Altalink Management Ltd.",AB,55.660108,-111.152247,Alberta,"name:19, node_code:None, node_type:None, owner:None, latitude:None, longitude:None, references:None, ",NULL
"Rycroft 730S",AB_730S_DSS,DSS,"ATCO Electric Ltd.",AB,55.751795,-118.699492,Alberta,"name:19, node_code:None, node_type:None, owner:None, latitude:None, longitude:None, references:None, ",NULL
"Elmworth 731S",AB_731S_DSS,DSS,"ATCO Electric Ltd.",AB,55.046360,-119.633218,Alberta,"name:19, node_code:None, node_type:None, owner:None, latitude:None, longitude:None, references:None, ",NULL
"Mitsue 732S",AB_732S_DSS,DSS,"ATCO Electric Ltd.",AB,55.267832,-114.578894,Alberta,"name:19, node_code:None, node_type:None, owner:None, latitude:None, longitude:None, references:None, ",NULL
"Simonette 733S",AB_733S_ISS,ISS,"ATCO Electric Ltd.",AB,54.423750,-117.759347,Alberta,"name:19, node_code:None, node_type:None, owner:None, latitude:None, longitude:None, references:None, ",NULL
"Sturgeon 734S",AB_734S_DSS,DSS,"ATCO Electric Ltd.",AB,54.940276,-117.203771,Alberta,"name:19, node_code:None, node_type:None, owner:None, latitude:None, longitude:None, references:None, ",NULL
"Swan River 735S",AB_735S_DSS,DSS,"ATCO Electric Ltd.",AB,54.873368,-115.285249,Alberta,"name:19, node_code:None, node_type:None, owner:None, latitude:None, longitude:None, references:None, ",NULL
"Horseshoe 737S",AB_737S_DSS,DSS,Suncor,AB,57.026060,-111.512501,Alberta,"name:19, node_code:None, node_type:None, owner:None, latitude:None, longitude:None, references:None, ",NULL
"Virginia Hills 738S",AB_738S_DSS,DSS,"ATCO Electric Ltd.",AB,54.594513,-115.861610,Alberta,"name:19, node_code:None, node_type:None, owner:None, latitude:None, longitude:None, references:None, ",NULL
"Edith Lake 739S",AB_739S_DSS,DSS,"ATCO Electric Ltd.",AB,54.817758,-115.431887,Alberta,"name:19, node_code:None, node_type:None, owner:None, latitude:None, longitude:None, references:None, ",NULL
"H.R. Milner 740S",AB_740S_GSS,GSS,"ATCO Electric Ltd.",AB,54.006606,-119.102237,Alberta,"name:19, node_code:None, node_type:None, owner:None, latitude:None, longitude:None, references:None, ",NULL
"Fox Creek 741S",AB_741S_DSS,DSS,"ATCO Electric Ltd.",AB,54.408079,-116.850081,Alberta,"name:19, node_code:None, node_type:None, owner:None, latitude:None, longitude:None, references:None, ",NULL
"Freeman Lake 742S",AB_742S_DSS,DSS,"ATCO Electric Ltd.",AB,54.690311,-115.533317,Alberta,"name:19, node_code:None, node_type:None, owner:None, latitude:None, longitude:None, references:None, ",NULL
"Sarah Lake 743S",AB_743S_DSS,DSS,"ATCO Electric Ltd.",AB,54.619330,-115.513782,Alberta,"name:19, node_code:None, node_type:None, owner:None, latitude:None, longitude:None, references:None, ",NULL
"Slave Lake 745S",AB_745S_DSS,DSS,"ATCO Electric Ltd.",AB,55.280087,-114.798716,Alberta,"name:19, node_code:None, node_type:None, owner:None, latitude:None, longitude:None, references:None, ",NULL
"Sherwood Park 746S",AB_746S_DSS,DSS,"Altalink Management Ltd.",AB,53.545401,-113.271737,Alberta,"name:19, node_code:None, node_type:None, owner:None, latitude:None, longitude:None, references:None, ",NULL
"Bassett 747S",AB_747S_DSS,DSS,"ATCO Electric Ltd.",AB,58.240115,-118.505033,Alberta,"name:19, node_code:None, node_type:None, owner:None, latitude:None, longitude:None, references:None, ","Location approximate"
"Haig River 748S",AB_748S_DSS,DSS,"ATCO Electric Ltd.",AB,58.054438,-118.471644,Alberta,"name:19, node_code:None, node_type:None, owner:None, latitude:None, longitude:None, references:None, ",NULL
"Flying Shot Lake 749S",AB_749S_DSS,DSS,"ATCO Electric Ltd.",AB,55.133065,-118.847675,Alberta,"name:19, node_code:None, node_type:None, owner:None, latitude:None, longitude:None, references:None, ",NULL
"Janet 74S",AB_74S_DSS,DSS,"Altalink Management Ltd.",AB,51.007113,-113.891032,Alberta,"name:19, node_code:None, node_type:None, owner:None, latitude:None, longitude:None, references:None, ",NULL
"Hill 751S",AB_751S_DSS,DSS,"ATCO Electric Ltd.",AB,53.293552,-110.031702,Alberta,"name:19, node_code:None, node_type:None, owner:None, latitude:None, longitude:None, references:None, ",NULL
"Albright & Wilson 752S",AB_752S_ISS,ISS,"ATCO Electric Ltd.",AB,55.071811,-118.699128,Alberta,"name:19, node_code:None, node_type:None, owner:None, latitude:None, longitude:None, references:None, ",NULL
"Ksituan River 754S",AB_754S_DSS,DSS,"ATCO Electric Ltd.",AB,55.728845,-119.408842,Alberta,"name:19, node_code:None, node_type:None, owner:None, latitude:None, longitude:None, references:None, ",NULL
"Cordel 755S",AB_755S_DSS,DSS,"ATCO Electric Ltd.",AB,52.464336,-112.131566,Alberta,"name:19, node_code:None, node_type:None, owner:None, latitude:None, longitude:None, references:None, ",NULL
"Bigfoot 756S",AB_756S_DSS,DSS,"ATCO Electric Ltd.",AB,52.433437,-112.138646,Alberta,"name:19, node_code:None, node_type:None, owner:None, latitude:None, longitude:None, references:None, ",NULL
"Battle River 757S",AB_757S_GSS,GSS,"ATCO Electric Ltd.",AB,52.468326,-112.132548,Alberta,"name:19, node_code:None, node_type:None, owner:None, latitude:None, longitude:None, references:None, ",NULL
"CG&E 758S",AB_758S_DSS,DSS,"ATCO Electric Ltd.",AB,55.112076,-118.802712,Alberta,"name:19, node_code:None, node_type:None, owner:None, latitude:None, longitude:None, references:None, ",NULL
"Castor 759S",AB_759S_DSS,DSS,"ATCO Electric Ltd.",AB,52.229799,-111.922580,Alberta,"name:19, node_code:None, node_type:None, owner:None, latitude:None, longitude:None, references:None, ",NULL
"Conklin 762S",AB_762S_DSS,DSS,"Altalink Management Ltd.",AB,55.663743,-110.718669,Alberta,"name:19, node_code:None, node_type:None, owner:None, latitude:None, longitude:None, references:None, ",NULL
"Hanna 763S",AB_763S_DSS,DSS,"ATCO Electric Ltd.",AB,51.633923,-111.919531,Alberta,"name:19, node_code:None, node_type:None, owner:None, latitude:None, longitude:None, references:None, ",NULL
"Heisler 764S",AB_764S_DSS,DSS,"ATCO Electric Ltd.",AB,52.638688,-112.162918,Alberta,"name:19, node_code:None, node_type:None, owner:None, latitude:None, longitude:None, references:None, ",NULL
